Nom_usuel,Service_AI,Sous-servi,Equipe_AIO,Code_posta,Adresse_si,Commune_si,NOM_COMM,insee,Code_AIOT,latitude,longitude,result_lab,result_sco,result_s_1,result_typ,result_id,result_hou,result_nam,result_str,result_pos,result_cit,result_con,result_c_1,result_old,result_o_1,result_dis,result_sta,Distance,Statut_IED,Statut_Sev,nb_points,groupe_id,X,Y
DECHT Queyras,DREAL PACA,UD 04-05,PA'le Territorial 05,"05470","-",AIGUILLES,AIGUILLES,"05003","6410072",44.781402000000000,6.869223000000000,Rue des Jardins 05470 Aiguilles,"0.413220202020202","0.40217392649903283",street,05003_0182,,Rue des Jardins,Rue des Jardins,"05470",Aiguilles,"05, Hautes-Alpes, Provence-Alpes-CA'te d'Azur","05003",,,,ok,1927.261269033760527,Non,Non Seveso,"1","1171",1005959.587941179750487,6416637.256206645630300
APEE Chaufferie Biomasse Aix,DREAL PACA,UD 13,PA'le Chronique Risque,"13090",ZUP Encagnane 43 avenue Jean Giono,AIX-EN-PROVENCE,AIX-EN-PROVENCE,"13001","6400007",43.515234999999997,5.437165000000000,Avenue Jean Giono 13090 Aix-en-Provence,"0.44737656565656564",,street,13001_1147,,Avenue Jean Giono,Avenue Jean Giono,"13090",Aix-en-Provence,"13, Bouches-du-RhA'ne, Provence-Alpes-CA'te d'Azur","13001",,,,ok,447.780193354278595,Non,Non Seveso,"1","629",897107.161152864806354,6271503.807437519542873
CARREFOUR Aix (La Pioline),DREAL PACA,UD 13,Equipe Aix en Provence,"13100",Centre commercial la Pioline 1175  venue Guillaume du Vair,AIX-EN-PROVENCE,AIX-EN-PROVENCE,"13001","6400003",43.507890000000003,5.403897000000000,Rue Guillaume du Vair 13290 Aix-en-Provence,"0.3697856234915527","0.35175329847144005",street,13001_1343,,Rue Guillaume du Vair,Rue Guillaume du Vair,"13290",Aix-en-Provence,"13, Bouches-du-RhA'ne, Provence-Alpes-CA'te d'Azur","13001",,,,ok,2431.876340718238225,Non,Non Seveso,"1","605",894442.278528281138279,6270605.332327758893371
CARREFOUR STATION SERVICE,DREAL PACA,UD 13,Equipe Aix en Provence,"13100",ZAC de la Pioline BP 11,AIX-EN-PROVENCE,AIX-EN-PROVENCE,"13001","6413958",43.527745000000003,5.445807000000000,Rue de la Couronne 13100 Aix-en-Provence,"0.43025274944567626","0.4165248951048951",street,13001_0740,,Rue de la Couronne,Rue de la Couronne,"13100",Aix-en-Provence,"13, Bouches-du-RhA'ne, Provence-Alpes-CA'te d'Azur","13001",,,,ok,4477.100460297941027,Non,Non Seveso,"1","636",897762.803821153705940,6272915.192285544238985
Centre Transfert DA(c)chets - Aix La Parade,DREAL PACA,UD 13,PA'le DA(c)chet MatA(c)riau,"13080",Ch du ChAC/teau Lafarge. Rte des Milles,AIX-EN-PROVENCE,AIX-EN-PROVENCE,"13001","6406563",43.508172999999999,5.416005000000000,Chemin du ChAC/teau Lafarge 13090 Aix-en-Provence,"0.4037377909940526","0.40237314456035767",street,13001_0639,,Chemin du ChAC/teau Lafarge,Chemin du ChAC/teau Lafarge,"13090",Aix-en-Provence,"13, Bouches-du-RhA'ne, Provence-Alpes-CA'te d'Azur","13001",,,,ok,125.349453067650487,Non,Non Seveso,"1","615",895420.382431569742039,6270666.662919940426946
EAST BALT AIX,DREAL PACA,UD 13,PA'le Chronique Risque,"13080",Quartier de l'Enfant - les Trois Pigeons Rue Henri Delaunay,AIX-EN-PROVENCE,AIX-EN-PROVENCE,"13001","6409692",43.485284000000000,5.409781000000000,Avenue Henri Rodari 13080 Aix-en-Provence,"0.34885701298701294",,street,13001_1354,,Avenue Henri Rodari,Avenue Henri Rodari,"13080",Aix-en-Provence,"13, Bouches-du-RhA'ne, Provence-Alpes-CA'te d'Azur","13001",,,,ok,1452.437368111221076,Non,Non Seveso,"1","606",894994.734172839438543,6268108.389229097403586
EASYDIS  Aix 1 entrepA't,DREAL PACA,UD 13,PA'le Chronique Risque,"13080",Rue Jean Perrin ZI LES MILLES 11  Avenue Jean Perrin BP 63 000,AIX-EN-PROVENCE,AIX-EN-PROVENCE,"13001","6402675",43.487166000000002,5.420084000000000,11 Chemin de la Commanderie Saint-Jean de Malte 13080 Aix-en-Provence,"0.35448588235294115","0.34912756548536206",housenumber,13001_0697_00011,"11",11 Chemin de la Commanderie Saint-Jean de Malte,Chemin de la Commanderie Saint-Jean de Malte,"13080",Aix-en-Provence,"13, Bouches-du-RhA'ne, Provence-Alpes-CA'te d'Azur","13001",,,,ok,3539.977955287098666,Non,Non Seveso,"1","619",895821.762005591532215,6268342.971003601327538
Easydis AIX 2,DREAL PACA,UD 13,PA'le Chronique Risque,"13290","Zone industrielle des milles 77 rue AndrA(c) AmpA""re",AIX-EN-PROVENCE,AIX-EN-PROVENCE,"13001","6412340",43.486170000000001,5.380063000000000,"Rue AndrA(c) AmpA""re 13100 Aix-en-Provence","0.4123603496503496","0.3842006060606061",street,13001_2gx136,,"Rue AndrA(c) AmpA""re","Rue AndrA(c) AmpA""re","13100",Aix-en-Provence,"13, Bouches-du-RhA'ne, Provence-Alpes-CA'te d'Azur","13001",,,,ok,685.243637173546290,Non,Non Seveso,"1","582",892587.777110282098874,6268133.887653684243560
Station ESSO - Les Tourelles - Aix,DREAL PACA,UD 13,Equipe Aix en Provence,"13080",Avenue Henri MALACRIDA,AIX-EN-PROVENCE,AIX-EN-PROVENCE,"13001","6405585",43.514446000000000,5.469480000000000,Avenue Henri Malacrida 13100 Aix-en-Provence,"0.5199272727272727","0.45792019342359763",street,13001_1376,,Avenue Henri Malacrida,Avenue Henri Malacrida,"13100",Aix-en-Provence,"13, Bouches-du-RhA'ne, Provence-Alpes-CA'te d'Azur","13001",,,,ok,595.340023305827572,Non,Non Seveso,"1","645",899722.551489718258381,6271497.355146885849535
Station GEANT CASINO (FLOREAL)  Aix,DREAL PACA,UD 13,Equipe Aix en Provence,"13080",Route de Berre HypermarchA(c) GA(c)ant Casino,AIX-EN-PROVENCE,AIX-EN-PROVENCE,"13001","6405560",43.491415000000003,5.413532000000000,Chemin de la Commanderie Saint-Jean de Malte 13080 Aix-en-Provence,"0.3901180916604057","0.3658550892098555",street,13001_0697,,Chemin de la Commanderie Saint-Jean de Malte,Chemin de la Commanderie Saint-Jean de Malte,"13080",Aix-en-Provence,"13, Bouches-du-RhA'ne, Provence-Alpes-CA'te d'Azur","13001",,,,ok,9216.883889507267668,Non,Non Seveso,"2","612",895277.337452906416729,6268798.795746829360723
GCSPA (ex-SIHPA),DREAL PACA,UD 13,Equipe Aix en Provence,"13617",C.H. Montperrin 109  Avenue du Petit BarthA(c)lA(c)my,AIX-EN-PROVENCE,AIX-EN-PROVENCE,"13001","6402671",43.522452000000001,5.438208000000000,109 Avenue du Petit BarthA(c)lA(c)my 13090 Aix-en-Provence,"0.5456003030303029","0.37351744142455484",housenumber,13001_2261_00109,"109",109 Avenue du Petit BarthA(c)lA(c)my,Avenue du Petit BarthA(c)lA(c)my,"13090",Aix-en-Provence,"13, Bouches-du-RhA'ne, Provence-Alpes-CA'te d'Azur","13001",,,,ok,205.790949321705398,Non,Non Seveso,"1","632",897166.722843063995242,6272308.174146037548780
HELION,DREAL PACA,UD 13,Equipe Aix en Provence,"13080",Domaine du Petit Arbois BAC/timent Jules Verne - BP 71,AIX-EN-PROVENCE,AIX-EN-PROVENCE,"13001","6404644",43.489282000000003,5.418383000000000,AllA(c)e du Moulin A  vent 13080 Aix-en-Provence,"0.42278308691308686","0.3927891096532333",street,13001_2042,,AllA(c)e du Moulin A  vent,AllA(c)e du Moulin A  vent,"13080",Aix-en-Provence,"13, Bouches-du-RhA'ne, Provence-Alpes-CA'te d'Azur","13001",,,,ok,6851.963748414039401,Non,Non Seveso,"1","617",895676.966097857803106,6268573.835174117237329
Inconnu (plainte D) MASSIF DE L'ARBOIS,DREAL PACA,UD 13,PA'le DA(c)chet MatA(c)riau,"13290","-",AIX-EN-PROVENCE,AIX-EN-PROVENCE,"13001","6414110",43.502167999999998,5.327784000000000,Route de la Tour d'Arbois 13290 Aix-en-Provence,"0.5312453535353535",,street,13001_2975,,Route de la Tour d'Arbois,Route de la Tour d'Arbois,"13290",Aix-en-Provence,"13, Bouches-du-RhA'ne, Provence-Alpes-CA'te d'Azur","13001",,,,ok,34.726935156000280,Non,Non Seveso,"3","521",888306.339981412980705,6269785.162281293421984
LA PIECE AUTOMOBILE 13 (ex HUGUET A WAY),DREAL PACA,UD 13,PA'le DA(c)chet MatA(c)riau,"13080",955 chemin de la Valette Plan d'Aillane (Les Milles),AIX-EN-PROVENCE,AIX-EN-PROVENCE,"13001","6402297",43.491415000000003,5.413532000000000,Chemin de la Commanderie Saint-Jean de Malte 13080 Aix-en-Provence,"0.39514568694463426","0.36961334310850436",street,13001_0697,,Chemin de la Commanderie Saint-Jean de Malte,Chemin de la Commanderie Saint-Jean de Malte,"13080",Aix-en-Provence,"13, Bouches-du-RhA'ne, Provence-Alpes-CA'te d'Azur","13001",,,,ok,3833.372239854325926,Non,Non Seveso,"2","612",895277.337452906416729,6268798.795746829360723
LES MILLES PIECES AUTO,DREAL PACA,UD 13,PA'le DA(c)chet MatA(c)riau,"13080",900  avenue Georges Claude,AIX-EN-PROVENCE,AIX-EN-PROVENCE,"13001","6406502",43.486103000000000,5.381956000000000,900 Rue Georges Claude 13100 Aix-en-Provence,"0.5141735327963176","0.41750038815117463",housenumber,13001_3jfava_00900,"900",900 Rue Georges Claude,Rue Georges Claude,"13100",Aix-en-Provence,"13, Bouches-du-RhA'ne, Provence-Alpes-CA'te d'Azur","13001",,,,ok,77.681332306114058,Non,Non Seveso,"1","584",892741.131329220137559,6268131.062867452390492
METROPOLE AMP  ISDND ARBOIS,DREAL PACA,UD 13,PA'le DA(c)chet MatA(c)riau,"13626",TERRITOIRE PAYS D'AIX CS 40686,AIX-EN-PROVENCE,AIX-EN-PROVENCE,"13001","6401122",43.502167999999998,5.327784000000000,Route de la Tour d'Arbois 13290 Aix-en-Provence,"0.36091964749536176",,street,13001_2975,,Route de la Tour d'Arbois,Route de la Tour d'Arbois,"13290",Aix-en-Provence,"13, Bouches-du-RhA'ne, Provence-Alpes-CA'te d'Azur","13001",,,,ok,4325.497316433323249,Oui,Non Seveso,"3","521",888306.339981412980705,6269785.162281293421984
CARRIERE SN ECT,DREAL PACA,UD 13,PA'le DA(c)chet MatA(c)riau,"13547",1620 chemin de la couronnade CS 60661,AIX-EN-PROVENCE,AIX-EN-PROVENCE,"13001","6400018",43.513488000000002,5.367242000000000,1620 Chemin de la Couronnade 13290 Aix-en-Provence,"0.5515681818181818",,housenumber,13001_0737_01620,"1620",1620 Chemin de la Couronnade,Chemin de la Couronnade,"13290",Aix-en-Provence,"13, Bouches-du-RhA'ne, Provence-Alpes-CA'te d'Azur","13001",,,,ok,45.992489138603638,Ex IED - MTD,Non Seveso,"1","560",891459.636806662310846,6271137.681314188987017
SPA,DDPP 13,SPAE 13,SPAE,"13090",9015 Maison du RA(c)altor Route dela Tour d'Arbois,AIX-EN-PROVENCE,AIX-EN-PROVENCE,"13001","6411436",43.502167999999998,5.327784000000000,Route de la Tour d'Arbois 13290 Aix-en-Provence,"0.5466774523007857","0.40387311411992255",street,13001_2975,,Route de la Tour d'Arbois,Route de la Tour d'Arbois,"13290",Aix-en-Provence,"13, Bouches-du-RhA'ne, Provence-Alpes-CA'te d'Azur","13001",,,,ok,3624.188435229953939,Non,Non Seveso,"3","521",888306.339981412980705,6269785.162281293421984
STE AIXOISE POUR LA PROTECTION ANIMAUX,DDPP 13,SPAE 13,SPAE,"13090",ROUTE DE MARIGNANE C.D.9,AIX-EN-PROVENCE,AIX-EN-PROVENCE,"13001","6402816",43.520857999999997,5.443967000000000,Rue de la Reine Astrid 13090 Aix-en-Provence,"0.38664623376623375","0.3860337480063796",street,13001_2593,,Rue de la Reine Astrid,Rue de la Reine Astrid,"13090",Aix-en-Provence,"13, Bouches-du-RhA'ne, Provence-Alpes-CA'te d'Azur","13001",,,,ok,13160.876963133116078,Non,Non Seveso,"1","635",897637.760903823189437,6272145.488695325329900
Station TOTAL Access Pont de l'Arc,DREAL PACA,UD 13,Equipe Aix en Provence,"13090",292  avenue FortunA(c) Ferrini Relais du Pont de l'Arc,AIX-EN-PROVENCE,AIX-EN-PROVENCE,"13001","6405592",43.508744000000000,5.439496000000000,292 Avenue Fortune Ferrini 13100 Aix-en-Provence,"0.4280298564593301","0.319672582461786",housenumber,13001_1114_00292,"292",292 Avenue Fortune Ferrini,Avenue Fortune Ferrini,"13100",Aix-en-Provence,"13, Bouches-du-RhA'ne, Provence-Alpes-CA'te d'Azur","13001",,,,ok,4.929308013260314,Non,Non Seveso,"1","633",897317.907591227674857,6270788.517092702910304
SYDEVOM de Allos,DREAL PACA,UD 04-05,PA'le Territorial 04,"04260",Zone Artisanale Lieudit La Digue,ALLOS,ALLOS,"04006","6406223",44.225054999999998,6.632362000000000,Plan Est Zone Artisanale 04260 Allos,"0.4006188888888889",,street,04006_0097,,Plan Est Zone Artisanale,Plan Est Zone Artisanale,"04260",Allos,"04, Alpes-de-Haute-Provence, Provence-Alpes-CA'te d'Azur","04006",,,,ok,71.579366151382118,Non,Non Seveso,"1","1111",990085.344754813588224,6354011.257741373032331
VAL D'ALLOS LOISIRS DEVELOPPEMENT,DREAL PACA,UD 04-05,PA'le Territorial 04,"04260","-",ALLOS,ALLOS,"04006","6409607",44.247940000000000,6.628072000000000,Lotissement Pelat 04260 Allos,"0.3490796238244514","0.33340969696969697",street,04006_A053,,Lotissement Pelat,Lotissement Pelat,"04260",Allos,"04, Alpes-de-Haute-Provence, Provence-Alpes-CA'te d'Azur","04006",,,,ok,1289.749994921735151,Non,Non Seveso,"1","1109",989626.203115424374118,6356535.303647074848413
CARRIERE communale d'Ancelle,DREAL PACA,UD 04-05,PA'le Territorial 05,"05260",ANCELLE,ANCELLE,ANCELLE,"05004","6405481",44.615724999999998,6.190135000000000,Rue de Cote Gelee 05260 Ancelle,"0.3466321356421356","0.326029020979021",street,05004_0240,,Rue de Cote Gelee,Rue de Cote Gelee,"05260",Ancelle,"05, Hautes-Alpes, Provence-Alpes-CA'te d'Azur","05004",,,,ok,3819.672101830390147,Non,Non Seveso,"1","970",953036.178456269903108,6395849.035300609655678
RESERVE BIOLOGIQUE DES MONTS D'AZUR,DDPP 06,SA,SA,"06750",Domaine du Haut Thorenc 2651 route des ChAC/teaux,THORENC,ANDON,"06003","6402920",43.805655000000002,6.845470000000000,2651 Route des ChAC/teaux 06750 Andon,"0.3398181818181818","0.2918196997497915",housenumber,06003_0142_02651,"2651",2651 Route des ChAC/teaux,Route des ChAC/teaux,"06750",Andon,"06, Alpes-Maritimes, Provence-Alpes-CA'te d'Azur","06003",,,,ok,173.735753042811865,Non,Non Seveso,"1","1165",1009359.884339288109913,6308272.187788350507617
Explo COZZI,DREAL PACA,UD 04-05,PA'le Territorial 04,"04240","-",ANNOT,ANNOT,"04008","6412829",43.967616000000000,6.637897000000000,Clot Ricoux 04240 Annot,"0.3831989898989899","0.3652357851239669",locality,04008_B031,,Clot Ricoux,,"04240",Annot,"04, Alpes-de-Haute-Provence, Provence-Alpes-CA'te d'Azur","04008",,,,ok,2483.197512515377639,Non,Non Seveso,"1","1113",991844.378687210264616,6325458.849350048229098
FAISSOLE SA (biscotterie),DREAL PACA,UD 04-05,PA'le Risque,"04240","Lieu-dit la RibiA""re Route du Fugeret",ANNOT,ANNOT,"04008","6407818",43.960642000000000,6.690966000000000,Pigeonnier et le Serre 04240 Annot,"0.2699980146290491","0.25426256684491977",locality,04008_B066,,Pigeonnier et le Serre,,"04240",Annot,"04, Alpes-de-Haute-Provence, Provence-Alpes-CA'te d'Azur","04008",,,,ok,2506.897051740519601,Non,Non Seveso,"1","1125",996134.882985093048774,6324882.354962364770472
FAISSOLE SA (pains grillA(c)s)SCI MAGALON,DREAL PACA,UD 04-05,PA'le Risque,"04240",Lieu-dit Magalon Route du Fugeret BP 55,ANNOT,ANNOT,"04008","6409495",43.983314999999997,6.697851000000000,"Route des PrA""s 04240 Annot","0.24359829428303653","0.23071258741258738",street,04008_8xhs47,,"Route des PrA""s","Route des PrA""s","04240",Annot,"04, Alpes-de-Haute-Provence, Provence-Alpes-CA'te d'Azur","04008",,,,ok,3358.564325812897096,Non,Non Seveso,"1","1132",996568.942824516328983,6327424.726586974225938
Domaine des marchands,DDPP 84,SSPAE 84,SSPAE,"84240",Lieu-dit Les Roumias Les castes,ANSOUIS,ANSOUIS,"84002","6409598",43.742460000000001,5.510755000000000,Chemin des Hautes Terres 84240 Ansouis,"0.320294556407448","0.3109986075949367",street,84002_idyfgr,,Chemin des Hautes Terres,Chemin des Hautes Terres,"84240",Ansouis,"84, Vaucluse, Provence-Alpes-CA'te d'Azur","84002",,,,ok,748.726875436131195,Non,Non Seveso,"1","668",902253.978103568428196,6296930.877746538259089
SCA DES COTEAUX,DDPP 84,SSPAE 84,SSPAE,"84240",Route de villelaure,ANSOUIS,ANSOUIS,"84002","6406604",43.740189999999998,5.468410000000000,Route de la Bonde 84240 Ansouis,"0.4252661941448381","0.4150334668721109",street,84002_qg7cxo,,Route de la Bonde,Route de la Bonde,"84240",Ansouis,"84, Vaucluse, Provence-Alpes-CA'te d'Azur","84002",,,,ok,706.531956952294195,Non,Non Seveso,"1","644",898851.880177327431738,6296571.188497724942863
AD AUTOMOBILE (ex n4),DREAL PACA,UD 06,PA'le DACEN,"06160",ZI des Terriers,ANTIBES,ANTIBES,"06004","6406976",43.601967999999999,7.082058000000000,AllA(c)e des Terriers 06600 Antibes,"0.47967658307210026","0.4384518777943368",street,06004_3391,,AllA(c)e des Terriers,AllA(c)e des Terriers,"06600",Antibes,"06, Alpes-Maritimes, Provence-Alpes-CA'te d'Azur","06004",,,,ok,3086.549282639104604,Non,Non Seveso,"1","1242",1029546.106557821040042,6286621.566963933408260
BENOIT RINO (Fischer),DREAL PACA,UD 06,PA'le DACEN,"06160",Voie Marie Fischer,ANTIBES,ANTIBES,"06004","6404774",43.599404000000000,7.084642000000000,Voie Marie Fischer 06600 Antibes,"0.5285412539184954","0.31667545454545454",street,06004_vctgkr,,Voie Marie Fischer,Voie Marie Fischer,"06600",Antibes,"06, Alpes-Maritimes, Provence-Alpes-CA'te d'Azur","06004",,,,ok,102.958242542321827,Non,Non Seveso,"1","1243",1029769.262102873763070,6286347.772219011560082
DA(c)chetterie Antibes (UNIVALOM),DREAL PACA,UD 06,PA'le DACEN,"06600",Rue Henri Laugier,ANTIBES,ANTIBES,"06004","6413962",43.605902999999998,7.075866000000000,Rue Henri Laugier 06600 Antibes,"0.47897678321678316",,street,06004_1571,,Rue Henri Laugier,Rue Henri Laugier,"06600",Antibes,"06, Alpes-Maritimes, Provence-Alpes-CA'te d'Azur","06004",,,,ok,246.487219865727610,Non,Non Seveso,"1","1241",1029024.104129728628322,6287032.497845730744302
MARINELAND SAS,DDPP 06,SA,SA,"06600",306 avenue de Mozart,ANTIBES,ANTIBES,"06004","6402569",43.614221000000001,7.125123000000000,306 Avenue Mozart 06600 Antibes,"0.5619623232323232",,housenumber,06004_2182_00306,"306",306 Avenue Mozart,Avenue Mozart,"06600",Antibes,"06, Alpes-Maritimes, Provence-Alpes-CA'te d'Azur","06004",,,,ok,180.532100950189715,Non,Non Seveso,"1","1257",1032948.503752616234124,6288162.180268549360335
MONACO MARINE,DREAL PACA,UD 06,PA'le ERASO,"06160",PORT VAUBAN,ANTIBES,ANTIBES,"06004","6413836",43.582996000000001,7.123088000000000,Rond-point Vauban 06600 Antibes,"0.4855272727272727","0.4501626499032882",locality,06004_3551,,Rond-point Vauban,,"06600",Antibes,"06, Alpes-Maritimes, Provence-Alpes-CA'te d'Azur","06004",,,,ok,30.967139793472246,Non,Non Seveso,"1","1256",1032965.528590177418664,6284687.973079873248935
RECORD FRANCE,DREAL PACA,UD 06,PA'le ERASO,"06600",ZI des Trois Moulins 544  Rue des Trois Moulins,ANTIBES,ANTIBES,"06004","6401175",43.603082999999998,7.075130000000000,544 Rue des Trois Moulins 06600 Antibes,"0.4906124165707709","0.4234951871657754",housenumber,06004_3487_00544,"544",544 Rue des Trois Moulins,Rue des Trois Moulins,"06600",Antibes,"06, Alpes-Maritimes, Provence-Alpes-CA'te d'Azur","06004",,,,ok,22.769159333078083,Non,Non Seveso,"1","1239",1028980.910985131864436,6286716.434001318179071
CAP 1 CAP 2,DDPP 06,SA,SA,"06160",JUANS LES PINS (port du crouton),ANTIBES,ANTIBES,"06004","6412476",43.564979000000001,7.120154000000000,Chemin du Crouton 06160 Antibes,"0.4098671625344352",,street,06004_0860,,Chemin du Crouton,Chemin du Crouton,"06160",Antibes,"06, Alpes-Maritimes, Provence-Alpes-CA'te d'Azur","06004",,,,ok,1131.978920790970506,Non,Non Seveso,"1","1253",1032833.242343618068844,6282675.880394841544330
VALOMED,DREAL PACA,UD 06,PA'le DACEN,"06160",Route de Grasse lieu-dit font de cine,ANTIBES,ANTIBES,"06004","6400297",43.594588999999999,7.093774000000000,Route de Grasse 06600 Antibes,"0.44413874125874125","0.4007121212121212",street,06004_1450,,Route de Grasse,Route de Grasse,"06600",Antibes,"06, Alpes-Maritimes, Provence-Alpes-CA'te d'Azur","06004",,,,ok,29.607229083319829,Oui,Non Seveso,"1","1248",1030533.596302894875407,6285851.530079091899097
APTUNION,DREAL PACA,UD 84,UnitA(c) risques chroniques,"84400",Quartier Salignan - CS 90137,APT,APT,"84003","6400455",43.883842000000001,5.353802000000000,Quartier Salignan 84400 Apt,"0.5242390909090909",,street,84003_cpt5zy,,Quartier Salignan,Quartier Salignan,"84400",Apt,"84, Vaucluse, Provence-Alpes-CA'te d'Azur","84003",,,,ok,561.080840825960763,Non,Non Seveso,"3","534",889146.229555035824887,6312245.476470443420112
EntrepA't DELTA PLUS SERVICE,DREAL PACA,UD 84,UnitA(c) risques accidentels,"84400","ZI la peyroliA""re. BP 140.",APT,APT,"84003","6401658",43.883398000000000,5.361245000000000,Zone Industrielle la Peyroliere 84400 Apt,"0.3596210471806674",,street,84003_ba6c7t,,Zone Industrielle la Peyroliere,Zone Industrielle la Peyroliere,"84400",Apt,"84, Vaucluse, Provence-Alpes-CA'te d'Azur","84003",,,,ok,199.995199286896508,Non,Non Seveso,"2","544",889745.629401963087730,6312214.018406034447253
EUROSILICONE SAS,DREAL PACA,UD 84,UnitA(c) risques chroniques,"84400","ZI de la peyroliA""re",APT,APT,"84003","6403671",43.883398000000000,5.361245000000000,Zone Industrielle la Peyroliere 84400 Apt,"0.43244181818181815",,street,84003_ba6c7t,,Zone Industrielle la Peyroliere,Zone Industrielle la Peyroliere,"84400",Apt,"84, Vaucluse, Provence-Alpes-CA'te d'Azur","84003",,,,ok,908.472401626316923,Non,Non Seveso,"2","544",889745.629401963087730,6312214.018406034447253
FERT DEMOLITION (ex LAVAGNE),DREAL PACA,UD 84,UnitA(c) risques accidentels,"84400",quartier Salignan,APT,APT,"84003","6400478",43.883842000000001,5.353802000000000,Quartier Salignan 84400 Apt,"0.4521281510015408",,street,84003_cpt5zy,,Quartier Salignan,Quartier Salignan,"84400",Apt,"84, Vaucluse, Provence-Alpes-CA'te d'Azur","84003",,,,ok,633.454390434489710,Non,Non Seveso,"3","534",889146.229555035824887,6312245.476470443420112
FRULACT FRANCE (ex FRUPREP),DREAL PACA,UD 84,UnitA(c) risques chroniques,"84400",Quartier Salignan Route de la CharitA(c),APT,APT,"84003","6409429",43.883842000000001,5.353802000000000,Quartier Salignan 84400 Apt,"0.3545421212121212",,street,84003_cpt5zy,,Quartier Salignan,Quartier Salignan,"84400",Apt,"84, Vaucluse, Provence-Alpes-CA'te d'Azur","84003",,,,ok,796.700930205818281,Non,Non Seveso,"3","534",889146.229555035824887,6312245.476470443420112
ISDI SIRTOM d'APT (APT),DREAL PACA,UD 84,UnitA(c) dA(c)chets,"84400",Lieu-dit A les Desfessis   Hameau des Jean-Jean,APT,APT,"84003","6412226",43.908259000000001,5.437974000000000,Hameau des Jean Jean 84400 Apt,"0.3801890909090909","0.2771323301985371",street,84003_e6181c,,Hameau des Jean Jean,Hameau des Jean Jean,"84400",Apt,"84, Vaucluse, Provence-Alpes-CA'te d'Azur","84003",,,,ok,1038.755631175800772,Non,Non Seveso,"1","631",895824.232885454548523,6315162.605818594805896
Centre de Transit d'APT,DREAL PACA,UD 84,UnitA(c) dA(c)chets,"84400",Salignan,APT,APT,"84003","6400502",43.886208000000003,5.356245000000000,Salignan 84400 Apt,"0.3755319342359768","0.34903247933884296",street,84003_uflgew,,Salignan,Salignan,"84400",Apt,"84, Vaucluse, Provence-Alpes-CA'te d'Azur","84003",,,,ok,734.759240870538406,Non,Non Seveso,"1","538",889334.641225732979365,6312514.123789818026125
OCRES DE FRANCE,DREAL PACA,UD 84,"UnitA(c) carriA""res","84400",93 chemin des Ocriers BP NAdeg 18,APT,APT,"84003","6401258",43.878360000000001,5.385226000000000,93 Impasse des Ocriers 84400 Apt,"0.35893558441558443",,housenumber,84003_0737_00093,"93",93 Impasse des Ocriers,Impasse des Ocriers,"84400",Apt,"84, Vaucluse, Provence-Alpes-CA'te d'Azur","84003",,,,ok,33.857001851732726,Non,Non Seveso,"1","591",891689.026572289760225,6311712.369506401009858
SUD VAUCLUSE APPRO,DREAL PACA,SPR,UnitA(c) ICPE,"84400",1062 Quartier de LanASSon,APT,APT,"84003","6401117",43.880526000000003,5.384826000000000,Quartier de la Gare 84400 Apt,"0.3776543108504398","0.3622089531680441",street,84003_hrhurr,,Quartier de la Gare,Quartier de la Gare,"84400",Apt,"84, Vaucluse, Provence-Alpes-CA'te d'Azur","84003",,,,ok,758.256106384361829,Non,Non Seveso,"1","590",891649.622185497428291,6311951.975024181418121
AGROFINO,DREAL PACA,SPR,UnitA(c) ICPE,"13104",Chemin des SA(c)gonnaux Zone Portuaire,ARLES,ARLES,"13004","6402309",43.694701999999999,4.629167000000000,Chemin des SA(c)gonnaux 13200 Arles,"0.45959818181818174","0.28279143658810324",street,13004_zvtwsu,,Chemin des SA(c)gonnaux,Chemin des SA(c)gonnaux,"13200",Arles,"13, Bouches-du-RhA'ne, Provence-Alpes-CA'te d'Azur","13004",,,,ok,833.405841100416183,Non,Non Seveso,"2","8",831359.918760728091002,6289762.843870612792671
ARTERRIS (ex SUD CEREALES) Arles gimeau,DREAL PACA,UD 84,UnitA(c) risques accidentels,"13104",Clos Ferrier ROUTE des SAINTES MARIES DE LA MER,ARLES,ARLES,"13004","6400917",43.554059000000002,4.734592000000000,"Rue du Clos de la BraconniA""re 13104 Arles","0.2816100318979266","0.2582973927958833",street,13004_0916,,"Rue du Clos de la BraconniA""re","Rue du Clos de la BraconniA""re","13104",Arles,"13, Bouches-du-RhA'ne, Provence-Alpes-CA'te d'Azur","13004",,,,ok,17079.548909591674601,Non,Non Seveso,"1","39",840202.362373200594448,6274316.826578164473176
ARTERIS MAS JULIIAN ex SUD CEREALES sali,DREAL PACA,UD 84,UnitA(c) risques accidentels,"13104",Mas Jullian  -  SALIERS,ARLES,ARLES,"13004","6400906",43.661023000000000,4.487535000000001,Chemin de Saliers 13123 Arles,"0.22304528925619832","0.20480498023715413",street,13004_0101,,Chemin de Saliers,Chemin de Saliers,"13123",Arles,"13, Bouches-du-RhA'ne, Provence-Alpes-CA'te d'Azur","13004",,,,ok,649.675649052310405,Non,Non Seveso,"1","2",820012.036325966473669,6285795.236970336176455
COMMUNE D'ARLES,DREAL PACA,UD 84,UnitA(c) dA(c)chets,"13200",29 Avenue de Camargue,ARLES,ARLES,"13004","6413607",43.676276000000001,4.613323000000000,Avenue de la Camargue 13200 Arles,"0.5260408452950558","0.4314503751803751",street,13004_0670,,Avenue de la Camargue,Avenue de la Camargue,"13200",Arles,"13, Bouches-du-RhA'ne, Provence-Alpes-CA'te d'Azur","13004",,,,ok,638.089253805898011,Non,Non Seveso,"2","4",830124.429673225968145,6287689.289398338645697
IMERYS PCC France  (ex Solvay SF ex-CCP),DREAL PACA,UD 84,UnitA(c) risques chroniques,"13129",Route d'Arles salin de giraud,ARLES,ARLES,"13004","6400913",43.630096999999999,4.618000000000000,Route de Salin de Giraud 13129 Arles,"0.4225418181818182",,street,13004_4354,,Route de Salin de Giraud,Route de Salin de Giraud,"13129",Arles,"13, Bouches-du-RhA'ne, Provence-Alpes-CA'te d'Azur","13004",,,,ok,25242.355544754627772,Oui,Non Seveso,"2","6",830606.760247740545310,6282565.924218201078475
ISLE SAINT-PIERRE,DREAL PACA,UD 84,UnitA(c) risques chroniques,"13104",Domaine Isle Saint Pierre Mas Thibert,ARLES,ARLES,"13004","6412828",43.570618000000003,4.745996000000000,Route de Mas-Thibert au Pont de Bompas 13200 Arles,"0.3417349011857707",,street,13004_1rukd3,,Route de Mas-Thibert au Pont de Bompas,Route de Mas-Thibert au Pont de Bompas,"13200",Arles,"13, Bouches-du-RhA'ne, Provence-Alpes-CA'te d'Azur","13004",,,,ok,6841.584295602220664,Non,Non Seveso,"1","42",841083.275460547534749,6276177.111646424047649
M2I,DREAL PACA,UD 84,UnitA(c) risques accidentels,"13129",Route d'Arles SALIN DE GIRAUD,ARLES,ARLES,"13004","6401200",43.630096999999999,4.618000000000000,Route de Salin de Giraud 13129 Arles,"0.6358285314685314",,street,13004_4354,,Route de Salin de Giraud,Route de Salin de Giraud,"13129",Arles,"13, Bouches-du-RhA'ne, Provence-Alpes-CA'te d'Azur","13004",,,,ok,25164.288724873113097,Oui,Seveso seuil bas,"2","6",830606.760247740545310,6282565.924218201078475
PERRENOT DISTRIBIKE (exMDM),DREAL PACA,UD 84,UnitA(c) risques accidentels,"13104",32 rue GalilA(c)e,ARLES,ARLES,"13004","6408703",43.703046999999998,4.629806000000000,32 Rue GalilA(c)e 13200 Arles,"0.39021060606060604","0.31357363636363633",housenumber,13004_1751_00032,"32",32 Rue GalilA(c)e,Rue GalilA(c)e,"13200",Arles,"13, Bouches-du-RhA'ne, Provence-Alpes-CA'te d'Azur","13004",,,,ok,21.110412664288081,Non,Non Seveso,"1","9",831392.293589850654826,6290691.113335108384490
PURFER (ex-GDE),DREAL PACA,UD 84,UnitA(c) dA(c)chets,"13200",60  chemin dit Draille du Mas Molin,ARLES,ARLES,"13004","6407671",43.709515000000003,4.633853000000000,60 Chemin dit Draille du Mas Molin 13200 Arles,"0.6841115384615384",,housenumber,13004_bd0tun_00060,"60",60 Chemin dit Draille du Mas Molin,Chemin dit Draille du Mas Molin,"13200",Arles,"13, Bouches-du-RhA'ne, Provence-Alpes-CA'te d'Azur","13004",,,,ok,24.636822240365650,Non,Non Seveso,"1","14",831703.637524893274531,6291416.505842668004334
Rizerie SOUFFLET ALIMENTAIRE CAMARGUE,DREAL PACA,UD 84,UnitA(c) risques chroniques,"13104",Clos de Jourdan Route de  Gimeaux,ARLES,ARLES,"13004","6400879",43.668452000000002,4.589330000000000,Route de Gimeaux 13200 Arles,"0.3034660606060606","0.2972861206120612",street,13004_4164,,Route de Gimeaux,Route de Gimeaux,"13200",Arles,"13, Bouches-du-RhA'ne, Provence-Alpes-CA'te d'Azur","13004",,,,ok,42.890518369916201,Non,Non Seveso,"1","3",828207.010060948086902,6286780.701910242438316
SACHA (ex VNF) - SLIPWAY,DREAL PACA,UD 84,UnitA(c) risques accidentels,"13200",45 Chemin de Barriol,ARLES,ARLES,"13004","6411907",43.669786000000002,4.613449000000000,45 Chemin de Barriol 13200 Arles,"0.5427706896551723",,housenumber,13004_1272_00045,"45",45 Chemin de Barriol,Chemin de Barriol,"13200",Arles,"13, Bouches-du-RhA'ne, Provence-Alpes-CA'te d'Azur","13004",,,,ok,5.566133689025868,Non,Non Seveso,"1","5",830149.327591366250999,6286968.382931435480714
SARL FULVIO MOTO,DREAL PACA,UD 84,UnitA(c) risques accidentels,"13200",Mas Mollin,ARLES,ARLES,"13004","6412845",43.709547999999998,4.633373000000000,Chemin dit Draille du Mas Molin 13200 Arles,"0.36724090909090906",,street,13004_bd0tun,,Chemin dit Draille du Mas Molin,Chemin dit Draille du Mas Molin,"13200",Arles,"13, Bouches-du-RhA'ne, Provence-Alpes-CA'te d'Azur","13004",,,,ok,457.793049135921081,Non,Non Seveso,"1","13",831664.874757077777758,6291419.371929532848299
SETHELEC SNC,DREAL PACA,UD 84,UnitA(c) risques chroniques,"13104",29 bis  Avenue de Camargue BP 50230,ARLES,ARLES,"13004","6401555",43.676276000000001,4.613323000000000,Avenue de la Camargue 13200 Arles,"0.41925213438735176","0.3160102597402597",street,13004_0670,,Avenue de la Camargue,Avenue de la Camargue,"13200",Arles,"13, Bouches-du-RhA'ne, Provence-Alpes-CA'te d'Azur","13004",,,,ok,478.855328442007817,Oui,Non Seveso,"2","4",830124.429673225968145,6287689.289398338645697
SILOS DE TOURTOULEN SA,DREAL PACA,UD 84,UnitA(c) risques accidentels,"13104",Le Sambuc,ARLES,ARLES,"13004","6402754",43.555169999999997,4.732225000000000,Rue Jean de la Tour 13104 Arles,"0.40746082934609246","0.36526484848484847",street,13004_2351,,Rue Jean de la Tour,Rue Jean de la Tour,"13104",Arles,"13, Bouches-du-RhA'ne, Provence-Alpes-CA'te d'Azur","13004",,,,ok,4035.188669944174762,Non,Non Seveso,"1","35",840008.366281888680533,6274436.077734632417560
SME SociA(c)tA(c) MA(c)diterranA(c)enne d'Emballage,DREAL PACA,UD 84,UnitA(c) risques chroniques,"13104",ZI Sud 15 rue Gaspard Monge,ARLES,ARLES,"13004","6400910",43.662922000000002,4.623127000000000,15 Rue Gaspard Monge 13200 Arles,"0.35415825496342734","0.30377909090909094",housenumber,13004_1785_00015,"15",15 Rue Gaspard Monge,Rue Gaspard Monge,"13200",Arles,"13, Bouches-du-RhA'ne, Provence-Alpes-CA'te d'Azur","13004",,,,ok,103.875498542222431,Non,Non Seveso,"1","7",830945.576048707240261,6286221.711130634881556
SUD ENGRAIS DISTRIBUTION,DREAL PACA,UD 84,UnitA(c) risques accidentels,"13104",Zone portuaire des SA(c)gonnaux,ARLES,ARLES,"13004","6401883",43.694701999999999,4.629167000000000,Chemin des SA(c)gonnaux 13200 Arles,"0.3299361771561771","0.27282914198161384",street,13004_zvtwsu,,Chemin des SA(c)gonnaux,Chemin des SA(c)gonnaux,"13200",Arles,"13, Bouches-du-RhA'ne, Provence-Alpes-CA'te d'Azur","13004",,,,ok,466.067303098101206,Non,Seveso seuil bas,"2","8",831359.918760728091002,6289762.843870612792671
TRANSFO SERVICES,DREAL PACA,UD 84,UnitA(c) dA(c)chets,"13646",Parc d'activitA(c)s du Grand RhA'ne Rue Jacques LIEUTAUD  CS 42018,ARLES,ARLES,"13004","6400920",43.706246999999998,4.632722000000000,Rue Jacques Lieutaud 13200 Arles,"0.3305100656044986",,street,13004_2762,,Rue Jacques Lieutaud,Rue Jacques Lieutaud,"13200",Arles,"13, Bouches-du-RhA'ne, Provence-Alpes-CA'te d'Azur","13004",,,,ok,132.374382551436042,Non,Non Seveso,"1","12",831619.990488111041486,6291051.517652367241681
VICAT,DREAL PACA,UD 84,UnitA(c) dA(c)chets,"13200",13 chemin des SA(c)gonnaux Port fluvial d'Arles,ARLES,ARLES,"13004","6413520",43.690429999999999,4.630249000000000,13 Chemin des SA(c)gonnaux 13200 Arles,"0.5232006241519673","0.29535933884297516",housenumber,13004_zvtwsu_00013,"13",13 Chemin des SA(c)gonnaux,Chemin des SA(c)gonnaux,"13200",Arles,"13, Bouches-du-RhA'ne, Provence-Alpes-CA'te d'Azur","13004",,,,ok,1191.191264415219166,Non,Non Seveso,"1","10",831456.949321352760307,6289289.984050554223359
VIERI SERGE SAS,DREAL PACA,UD 84,UnitA(c) risques accidentels,"13200",10 rue galilA(c)e ZI Nord,ARLES,ARLES,"13004","6400925",43.699002000000000,4.631188000000000,10 Rue GalilA(c)e 13200 Arles,"0.4701004132231405",,housenumber,13004_1751_00010,"10",10 Rue GalilA(c)e,Rue GalilA(c)e,"13200",Arles,"13, Bouches-du-RhA'ne, Provence-Alpes-CA'te d'Azur","13004",,,,ok,4.095480316981845,Non,Non Seveso,"1","11",831512.977988314582035,6290243.978042555972934
PROVENCIALIS,DREAL PACA,UD 83,PA'le Risques accidentels et chroniques,"83560","Artigues-OlliA""res",ARTIGUES,ARTIGUES,"83006","6413165",43.599176999999997,5.806616000000000,Chemin Departemental daEUR(tm)Artigues 83560 Artigues,"0.3527062337662337","0.34628390461997016",street,83006_c0l1wl,,Chemin Departemental daEUR(tm)Artigues,Chemin Departemental daEUR(tm)Artigues,"83560",Artigues,"83, Var, Provence-Alpes-CA'te d'Azur","83006",,,,ok,2885.458932828161323,Non,Non Seveso,"1","777",926643.435173587407917,6281819.633445121347904
Chagnard,DREAL PACA,UD 04-05,PA'le Risque,"05140",plateau du pla,ASPREMONT,ASPREMONT,"05008","6413984",44.492803000000002,5.725101000000000,Le Chateau 05140 Aspremont,"0.4505928239845261","0.3943918181818182",locality,05008_funwnt,,Le Chateau,,"05140",Aspremont,"05, Hautes-Alpes, Provence-Alpes-CA'te d'Azur","05008",,,,ok,1199.956364523079401,Non,Non Seveso,"1","742",916637.492976322653703,6380821.103899310342968
Carriere SAB Aspremont,DREAL PACA,UD 04-05,PA'le Territorial 05,"05140",Lieu dit La Condamine,ASPREMONT,ASPREMONT,"05008","6413515",44.488374000000000,5.727769000000000,"Devant ViA""re et Pre la Cour 05140 Aspremont","0.37925217237308145","0.37925217237308145",locality,05008_5nwynp,,"Devant ViA""re et Pre la Cour",,"05140",Aspremont,"05, Hautes-Alpes, Provence-Alpes-CA'te d'Azur","05008",,,,ok,1436.238142547907728,Non,Non Seveso,"1","744",916866.499431491247378,6380336.725632419809699
"SAS SabliA""res du BuA<<ch ISDI d'Aspremont",DREAL PACA,UD 04-05,PA'le Territorial 05,"05140",Lieu dit La Condamine,ASPREMONT,ASPREMONT,"05008","100000283",44.489868999999999,5.730516000000000,Chemin Pre la Cour 05140 Aspremont,"0.315088347107438","0.3025728708133971",street,05008_1220,,Chemin Pre la Cour,Chemin Pre la Cour,"05140",Aspremont,"05, Hautes-Alpes, Provence-Alpes-CA'te d'Azur","05008",,,,ok,866.498611664545933,Non,Non Seveso,"1","746",917079.066229191957973,6380510.246729027479887
AUBAGNE ENROBES,DREAL PACA,UD 13,PA'le Chronique Risque,"13400",ZI les Paluds - 251  rue du dirigeable QUARTIER DES PALUDS,AUBAGNE,AUBAGNE,"13005","6400712",43.282800000000002,5.607666000000000,251 Rue du Dirigeable 13400 Aubagne,"0.39996161616161613",,housenumber,13005_0517_00251,"251",251 Rue du Dirigeable,Rue du Dirigeable,"13400",Aubagne,"13, Bouches-du-RhA'ne, Provence-Alpes-CA'te d'Azur","13005",,,,ok,12.484766783294383,Non,Non Seveso,"1","714",911744.758156307390891,6246121.750184581615031
Aubagne Thermolaquage (ex BUGE),DREAL PACA,UD 13,PA'le Chronique Risque,"13400",112 CHEMIN DE CASSIS,AUBAGNE,AUBAGNE,"13005","6401637",43.273558000000001,5.532985000000000,112 Chemin de Cassis 13400 Aubagne,"0.4965789723320158","0.4465113947696139",housenumber,13005_0325_00112,"112",112 Chemin de Cassis,Chemin de Cassis,"13400",Aubagne,"13, Bouches-du-RhA'ne, Provence-Alpes-CA'te d'Azur","13005",,,,ok,64.057478200001697,Non,Non Seveso,"1","677",905715.658244805992581,6244897.480289512313902
STATION AUCHAN Aubagne CCial,DREAL PACA,UD 13,PA'le Chronique Risque,"13400",Route de GA(c)mA(c)nos BP 1158,AUBAGNE,AUBAGNE,"13005","6400713",43.298507999999998,5.595122000000000,Route de Gemenos 13400 Aubagne,"0.4271825252525252",,street,13005_0855,,Route de Gemenos,Route de Gemenos,"13400",Aubagne,"13, Bouches-du-RhA'ne, Provence-Alpes-CA'te d'Azur","13005",,,,ok,681.825740089706414,Non,Non Seveso,"2","697",910669.163461538963020,6247833.437851522117853
AUCHAN AUBAGNE,DDPP 13,SPAE 13,SPAE,"13400",- ROUTE DE GEMENOS,AUBAGNE,AUBAGNE,"13005","6412468",43.298507999999998,5.595122000000000,Route de Gemenos 13400 Aubagne,"0.5882936363636363",,street,13005_0855,,Route de Gemenos,Route de Gemenos,"13400",Aubagne,"13, Bouches-du-RhA'ne, Provence-Alpes-CA'te d'Azur","13005",,,,ok,617.369333090537907,Non,Non Seveso,"2","697",910669.163461538963020,6247833.437851522117853
BLOSSIN JEAN-LOUIS,DDPP 13,SPAE 13,SPAE,"13400",- Quartier Fenestrelle,AUBAGNE,AUBAGNE,"13005","6411449",43.280887000000000,5.565352000000000,Chemin de Fenestrelle 13400 Aubagne,"0.46121545454545454","0.453960909090909",street,13005_0632,,Chemin de Fenestrelle,Chemin de Fenestrelle,"13400",Aubagne,"13, Bouches-du-RhA'ne, Provence-Alpes-CA'te d'Azur","13005",,,,ok,933.622419006539417,Non,Non Seveso,"1","683",908316.951065798755735,6245796.652951044961810
CARRIERE BRONZO,DREAL PACA,UD 13,PA'le DA(c)chet MatA(c)riau,"13400",Vallon de l'Escargot Route de la BA(c)doule,AUBAGNE,AUBAGNE,"13005","6401297",43.303499000000002,5.529066000000000,Chemin du Vallon de Ruissatel 13400 Aubagne,"0.32755090909090906","0.31385252525252527",street,13005_1975,,Chemin du Vallon de Ruissatel,Chemin du Vallon de Ruissatel,"13400",Aubagne,"13, Bouches-du-RhA'ne, Provence-Alpes-CA'te d'Azur","13005",,,,ok,6211.655659939140605,Non,Non Seveso,"1","676",905290.900192395085469,6248213.982819517143071
BRONZO Centre tri transfert Aubagne,DREAL PACA,UD 13,PA'le DA(c)chet MatA(c)riau,"13400",ZAC de Saint Mitre - Lot 21 Avenue de la Roche Collet Fourcade,AUBAGNE,AUBAGNE,"13005","6406561",43.284607999999999,5.536134000000000,Avenue de la Roche-fourcade 13400 Aubagne,"0.3765437154150197",,street,13005_1767,,Avenue de la Roche-fourcade,Avenue de la Roche-fourcade,"13400",Aubagne,"13, Bouches-du-RhA'ne, Provence-Alpes-CA'te d'Azur","13005",,,,ok,323.396685768217765,Non,Non Seveso,"1","678",905931.868582271039486,6246133.445525435730815
ELYDAN (ex POLYPIPE) Aubagne,DREAL PACA,UD 13,PA'le Chronique Risque,"13400",219-359 Avenue du Douard ZI les Paluds BP 1037,AUBAGNE,AUBAGNE,"13005","6401439",43.286304999999999,5.598571000000000,Avenue du Douard 13400 Aubagne,"0.3430885375494071","0.32101849129593807",street,13005_0532,,Avenue du Douard,Avenue du Douard,"13400",Aubagne,"13, Bouches-du-RhA'ne, Provence-Alpes-CA'te d'Azur","13005",,,,ok,137.162531577990023,Non,Non Seveso,"2","701",910993.683077039313503,6246486.829603650607169
LPC AUTO (ex SEDCA),DREAL PACA,UD 13,PA'le DA(c)chet MatA(c)riau,"13400",ZI St Mitre 1555 chemin VallA(c)e,AUBAGNE,AUBAGNE,"13005","6400759",43.284771999999997,5.525961000000000,1555 Chemin de la VallA(c)e 13400 Aubagne,"0.48414975672215105","0.35028306220095695",housenumber,13005_1970_01555,"1555",1555 Chemin de la VallA(c)e,Chemin de la VallA(c)e,"13400",Aubagne,"13, Bouches-du-RhA'ne, Provence-Alpes-CA'te d'Azur","13005",,,,ok,17.812451166406653,Non,Non Seveso,"1","675",905105.529104183544405,6246125.189721639268100
MANON ex SIBELL,DREAL PACA,UD 13,PA'le Chronique Risque,"13400",ZI des Paluds 70  avenue du Marin Blanc,AUBAGNE,AUBAGNE,"13005","6409666",43.285003000000003,5.596056000000000,70 Avenue du Marin Blanc 13400 Aubagne,"0.5146839227895392",,housenumber,13005_1283_00070,"70",70 Avenue du Marin Blanc,Avenue du Marin Blanc,"13400",Aubagne,"13, Bouches-du-RhA'ne, Provence-Alpes-CA'te d'Azur","13005",,,,ok,,,,"1","698",910794.306353793363087,6246335.452764212153852
MOTA SAS,DREAL PACA,UD 13,PA'le DA(c)chet MatA(c)riau,"13400",Avenue du Douard - ZI des Paluds,AUBAGNE,AUBAGNE,"13005","6412682",43.286304999999999,5.598571000000000,Avenue du Douard 13400 Aubagne,"0.5110727272727272","0.4602926018808777",street,13005_0532,,Avenue du Douard,Avenue du Douard,"13400",Aubagne,"13, Bouches-du-RhA'ne, Provence-Alpes-CA'te d'Azur","13005",,,,ok,3053.985481864301619,Non,Non Seveso,"2","701",910993.683077039313503,6246486.829603650607169
PROFROID,DREAL PACA,UD 13,Equipe Marseille,"13400",178  RUE DU FAUGE Z.I. LES PALUDS BPNAdeg 1152,AUBAGNE,AUBAGNE,"13005","6400775",43.289569000000000,5.601631000000000,178 Rue du Fauge 13400 Aubagne,"0.424695185659411","0.2772250517836594",housenumber,13005_0624_00178,"178",178 Rue du Fauge,Rue du Fauge,"13400",Aubagne,"13, Bouches-du-RhA'ne, Provence-Alpes-CA'te d'Azur","13005",,,,ok,118.996611091383940,Non,Non Seveso,"1","707",911230.100370009778999,6246857.658982619643211
SAP (TRANSIT TRI VAL),DREAL PACA,SPR,UnitA(c) ICPE,"13400",CHEMIN DE L'AUMONE VIEILLE BP 33,AUBAGNE,AUBAGNE,"13005","6400782",43.285041000000000,5.522709000000000,Chemin de l'Aumone-vieille 13400 Aubagne,"0.5566679769526248","0.4868556459330143",street,13005_0122,,Chemin de l'Aumone-vieille,Chemin de l'Aumone-vieille,"13400",Aubagne,"13, Bouches-du-RhA'ne, Provence-Alpes-CA'te d'Azur","13005",,,,ok,224.666961022046166,Non,Non Seveso,"1","673",904840.604627290973440,6246146.636457851156592
SARTORIUS STEDIM (ex LOGIBELL),DREAL PACA,UD 13,Equipe Marseille,"13400",ZAC du Parc NAPOLLON,AUBAGNE,AUBAGNE,"13005","6402329",43.315565999999997,5.587452000000000,Route de Napollon 13400 Aubagne,"0.3641015940224159","0.3489267532467532",street,13005_f05ija,,Route de Napollon,Route de Napollon,"13400",Aubagne,"13, Bouches-du-RhA'ne, Provence-Alpes-CA'te d'Azur","13005",,,,ok,3603.648693130084212,Non,Non Seveso,"1","695",909984.619448387064040,6249708.223741937428713
SPECIES,DREAL PACA,UD 13,Equipe Marseille,"13400",ZI Napollon - BP 1064 route nationale 96,AUBAGNE,AUBAGNE,"13005","6400796",43.318632000000001,5.583909000000000,Route Nationale 96 13400 Aubagne,"0.49885643356643355","0.46751472184531884",street,13005_ckbntc,,Route Nationale 96,Route Nationale 96,"13400",Aubagne,"13, Bouches-du-RhA'ne, Provence-Alpes-CA'te d'Azur","13005",,,,ok,436.587104912908785,Non,Non Seveso,"1","694",909686.039097273256630,6250039.452265569008887
NEUHAUSER,DREAL PACA,UD 84,UnitA(c) risques chroniques,"84810",783 avenue MAJORAL JOUVE,AUBIGNAN,AUBIGNAN,"84004","6405070",44.090946000000002,5.030808000000000,783 Avenue-majoral-jouve 84810 Aubignan,"0.696953367003367",,housenumber,84004_0540_00783,"783",783 Avenue-majoral-jouve,Avenue-majoral-jouve,"84810",Aubignan,"84, Vaucluse, Provence-Alpes-CA'te d'Azur","84004",,,,ok,69.559483296529137,Non,Non Seveso,"1","303",862605.565551184583455,6334529.207381585612893
CARRIERE BALLASTIERE DES ALPE Aubignosc,DREAL PACA,UD 04-05,PA'le Territorial 04,"04200",Le Jas,AUBIGNOSC,AUBIGNOSC,"04013","6401560",44.116095000000001,5.950650000000000,"Route des CarriA""res 04200 Aubignosc","0.38106149439601494","0.33945143826322927",street,04013_0105,,"Route des CarriA""res","Route des CarriA""res","04200",Aubignosc,"04, Alpes-de-Haute-Provence, Provence-Alpes-CA'te d'Azur","04013",,,,ok,498.179820495799959,Non,Non Seveso,"1","867",936123.430484767071903,6339644.509365946985781
ELECTRICITE DE FRANCE,DREAL PACA,UD 04-05,PA'le Territorial 05,"04200",Parcelles ZA-24 Zone activite lieu-dit les prA(c)sidentes,AUBIGNOSC,AUBIGNOSC,"04013","6414117",44.120550999999999,5.955571000000000,Impasse de l'Hirondelle partie privA(c)e 04200 Aubignosc,"0.33339467532467526","0.3125804456327985",street,04013_qfa5oe,,Impasse de l'Hirondelle partie privA(c)e,Impasse de l'Hirondelle partie privA(c)e,"04200",Aubignosc,"04, Alpes-de-Haute-Provence, Provence-Alpes-CA'te d'Azur","04013",,,,ok,665.087369300091041,Non,Non Seveso,"1","870",936498.519155033514835,6340153.973868297412992
CARRIERE DEBRESC - Aups,DREAL PACA,UD 83,"PA'le CarriA""res - dA(c)chets","83630",PILABRE,AUPS,AUPS,"83007","6402008",43.627777000000002,6.225069000000000,Rue des Barrins 83630 Aups,"0.38202183600713013","0.37244033057851234",street,83007_0040,,Rue des Barrins,Rue des Barrins,"83630",Aups,"83, Var, Provence-Alpes-CA'te d'Azur","83007",,,,ok,4516.478286952828967,Non,Non Seveso,"1","985",960287.526691447244957,6286286.130889086052775
ISDI Eau Blanche - AUPS,DREAL PACA,UD 83,"PA'le CarriA""res - dA(c)chets","83630",Lieu-dit Eau Blanche,AUPS,AUPS,"83007","6412187",43.635990000000000,6.218150000000000,Chemin de la Blaquiere 83630 Aups,"0.32457256916996047","0.2874223376623376",street,83007_0057,,Chemin de la Blaquiere,Chemin de la Blaquiere,"83630",Aups,"83, Var, Provence-Alpes-CA'te d'Azur","83007",,,,ok,2126.300146713565482,Non,Non Seveso,"1","983",959692.230207448126748,6287175.365159537643194
DA(c)chetterie du CLAVARY,DREAL PACA,UD 06,PA'le DACEN,"06810","DA(c)chetterie Clavary - Quartier des RoumiguiA""res Route de PA(c)gomas",AURIBEAU-SUR-SIAGNE,AURIBEAU-SUR-SIAGNE,"06007","6412160",43.613155999999996,6.924707000000000,Chemin de Clavary 06810 Auribeau-sur-Siagne,"0.34562735676088613",,street,06007_0485,,Chemin de Clavary,Chemin de Clavary,"06810",Auribeau-sur-Siagne,"06, Alpes-Maritimes, Provence-Alpes-CA'te d'Azur","06007",,,,ok,919.877625819492891,Non,Non Seveso,"1","1180",1016791.995015228865668,6287219.411399474367499
LES TRUITES DE VALCLUSE (EARL),DDPP 06,SA,SA,"06810",1208 route de Grasse,AURIBEAU-SUR-SIAGNE,AURIBEAU-SUR-SIAGNE,"06007","6411548",43.616774999999997,6.921493000000000,1208 Route de Grasse 06810 Auribeau-sur-Siagne,"0.5600136363636363",,housenumber,06007_0881_01208,"1208",1208 Route de Grasse,Route de Grasse,"06810",Auribeau-sur-Siagne,"06, Alpes-Maritimes, Provence-Alpes-CA'te d'Azur","06007",,,,ok,21.705689331707742,Non,Non Seveso,"1","1178",1016512.816049418062903,6287608.238953205756843
CARRIERE CEMEX,DREAL PACA,UD 13,PA'le DA(c)chet MatA(c)riau,"13390","CarriA""re St Claude Lieu-dit Hauts Pigautier - RN 560",AURIOL,AURIOL,"13007","6401334",43.371141999999999,5.622820000000000,Pigautier 13390 Auriol,"0.2711091347207009",,street,13007_i6c44n,,Pigautier,Pigautier,"13390",Auriol,"13, Bouches-du-RhA'ne, Provence-Alpes-CA'te d'Azur","13007",,,,ok,239.554165252178137,Non,Non Seveso,"1","727",912648.693243427085690,6255977.395493818446994
LES PERLES DE L'ETANG,DDPP 13,SPAE 13,SPAE,"13390","-",AURIOL,AURIOL,"13007","6411464",43.381601000000003,5.687898000000000,Chemin des Peres 13390 Auriol,"0.46842703557312243","0.446756862745098",street,13007_0293,,Chemin des Peres,Chemin des Peres,"13390",Auriol,"13, Bouches-du-RhA'ne, Provence-Alpes-CA'te d'Azur","13007",,,,ok,3075.474053099493176,Non,Non Seveso,"1","735",917883.399442857829854,6257316.756362674757838
GAEC FERME BERIDON,DDCSPP 04,SPAAE 04,SPAAE,"04140",L'INFERNET,AUZET,AUZET,"04017","6402781",44.309941999999999,6.322135000000000,Route du Haut-Infernet 04140 Auzet,"0.3751390111642743","0.36724576802507836",street,04017_0021,,Route du Haut-Infernet,Route du Haut-Infernet,"04140",Auzet,"04, Alpes-de-Haute-Provence, Provence-Alpes-CA'te d'Azur","04017",,,,ok,64.939335333656729,Non,Non Seveso,"1","1011",964928.847746080951765,6362342.504116096533835
AGIS (SA),DDPP 84,SSPAE 84,SSPAE,"84000","ZI Courtine 802 rue sainte GeneviA""ve",AVIGNON,AVIGNON,"84007","6404038",43.930636000000000,4.777458000000000,802 Rue Sainte Genevieve 84000 Avignon,"0.595051443001443",,housenumber,84007_6148_00802,"802",802 Rue Sainte Genevieve,Rue Sainte Genevieve,"84000",Avignon,"84, Vaucluse, Provence-Alpes-CA'te d'Azur","84007",,,,ok,70.252620865158249,Non,Non Seveso,"1","54",842724.579179313499480,6316232.239636256359518
AUCHAN AVIGNON SUD,DREAL PACA,UD 84,UnitA(c) risques accidentels,"84000",Centre commercial Mistral 7 RN 7 84013  AVIGNON Cedex,AVIGNON,AVIGNON,"84007","6400448",43.926774000000002,4.794578000000000,Centre Commercial Courtine 84000 Avignon,"0.337609573283859","0.29787839737582",locality,84007_A018,,Centre Commercial Courtine,,"84000",Avignon,"84, Vaucluse, Provence-Alpes-CA'te d'Azur","84007",,,,ok,5881.012841632827985,Non,Non Seveso,"1","70",844108.780649822670966,6315834.310525147244334
CANY EXPRESS,DDPP 84,SSPAE 84,SSPAE,"84000",- ZI Courtine,AVIGNON,AVIGNON,"84007","6411736",43.939211999999998,4.791030000000000,Chemin de Courtine 84000 Avignon,"0.47025490196078423","0.4044313713405239",street,84007_1590,,Chemin de Courtine,Chemin de Courtine,"84000",Avignon,"84, Vaucluse, Provence-Alpes-CA'te d'Azur","84007",,,,ok,2241.819422011020833,Non,Non Seveso,"2","66",843792.571484695188701,6317209.554216108284891
CENTRE HOSPITALIER D'AVIGNON,DREAL PACA,UD 84,UnitA(c) risques chroniques,"84000",305 rue Raoul Follereau,AVIGNON,AVIGNON,"84007","6404189",43.920285000000000,4.804883000000000,305 Rue Raoul Follereau 84000 Avignon,"0.5166820486555698",,housenumber,84007_5416_00305,"305",305 Rue Raoul Follereau,Rue Raoul Follereau,"84000",Avignon,"84, Vaucluse, Provence-Alpes-CA'te d'Azur","84007",,,,ok,186.881614706397727,Non,Non Seveso,"1","81",844952.632081349613145,6315132.320262438617647
CENTRE HOSPITALIER SPECIALISE DE MONTFAVET,DREAL PACA,UD 84,UnitA(c) risques chroniques,"84140","2 avenue de la PinA""de Montfavet",AVIGNON,AVIGNON,"84007","6400454",43.925086999999998,4.878327000000000,"2 Avenue de la PinA""de Mft 84140 Avignon","0.40398942583732056","0.3484715608919382",housenumber,84007_5015_00002,"2","2 Avenue de la PinA""de Mft","Avenue de la PinA""de Mft","84140",Avignon,"84, Vaucluse, Provence-Alpes-CA'te d'Azur","84007",,,,ok,21.186554140365679,Non,Non Seveso,"1","148",850837.238244059262797,6315803.319257944822311
DECHETERIE AVIGNON COURTINE (COGA),DREAL PACA,UD 84,UnitA(c) dA(c)chets,"84097",Chemin de Courtine,AVIGNON,AVIGNON,"84007","6413867",43.939211999999998,4.791030000000000,Chemin de Courtine 84000 Avignon,"0.42643434343434344","0.30672449197860957",street,84007_1590,,Chemin de Courtine,Chemin de Courtine,"84000",Avignon,"84, Vaucluse, Provence-Alpes-CA'te d'Azur","84007",,,,ok,49.211635700579336,Non,Non Seveso,"2","66",843792.571484695188701,6317209.554216108284891
DELIFRANCE,DREAL PACA,UD 84,UnitA(c) risques chroniques,"84000","ZI de Courtine. 643 rue Sainte GeneviA""ve",AVIGNON,AVIGNON,"84007","6400443",43.930531999999999,4.777739000000000,643 Rue Sainte Genevieve 84000 Avignon,"0.5486244400527008",,housenumber,84007_6148_00643,"643",643 Rue Sainte Genevieve,Rue Sainte Genevieve,"84000",Avignon,"84, Vaucluse, Provence-Alpes-CA'te d'Azur","84007",,,,ok,49.396759406349275,Non,Non Seveso,"1","56",842747.398979408084415,6316221.194371613673866
DELORME SARL,DREAL PACA,UD 84,UnitA(c) dA(c)chets,"84000",4 avenue AndrA(c) Delorme,AVIGNON,AVIGNON,"84007","6412830",43.945765000000002,4.825072000000000,Avenue AndrA(c) Delorme 84000 Avignon,"0.6055955555555556","0.48050587301587294",street,84007_0328,,Avenue AndrA(c) Delorme,Avenue AndrA(c) Delorme,"84000",Avignon,"84, Vaucluse, Provence-Alpes-CA'te d'Azur","84007",,,,ok,80.274670792283985,Non,Non Seveso,"1","99",846508.317941146669909,6318000.082920658402145
ENEDIS (ex. ERDF),DREAL PACA,UD 84,UnitA(c) dA(c)chets,"84000",Station de transit 150 rue Michel Cazaux,AVIGNON,AVIGNON,"84007","6400466",43.929340000000003,4.773138000000000,150 Rue Michel Cazaux 84000 Avignon,"0.4758749631449631",,housenumber,84007_3804_00150,"150",150 Rue Michel Cazaux,Rue Michel Cazaux,"84000",Avignon,"84, Vaucluse, Provence-Alpes-CA'te d'Azur","84007",,,,ok,73.663582958365325,Non,Non Seveso,"1","52",842380.987912646727636,6316080.469692803919315
ETABLISSEMENTS R.FILLIERE ET COMPAGNIE,DDPP 84,SSPAE 84,SSPAE,"84000",- 20 avenue de Fontcouverte,AVIGNON,AVIGNON,"84007","6404036",43.938341000000001,4.840860000000000,20 Avenue de Fontcouverte 84000 Avignon,"0.48008847754654976","0.3878917112299465",housenumber,84007_2129_00020,"20",20 Avenue de Fontcouverte,Avenue de Fontcouverte,"84000",Avignon,"84, Vaucluse, Provence-Alpes-CA'te d'Azur","84007",,,,ok,89.127350798278442,Non,Non Seveso,"1","115",847794.706565087195486,6317204.802031196653843
NATUREX,DREAL PACA,UD 84,UnitA(c) risques accidentels,"84000",Site d'Agroparc Montfavet,AVIGNON,AVIGNON,"84007","6400486",43.940288000000002,4.833067000000000,Route de Montfavet 84000 Avignon,"0.5094180519480519","0.42355304347826084",street,84007_4040,,Route de Montfavet,Route de Montfavet,"84000",Avignon,"84, Vaucluse, Provence-Alpes-CA'te d'Azur","84007",,,,ok,4120.633006610279153,Non,Non Seveso,"1","109",847164.131027564289980,6317406.531553630717099
PROVENCE IQF SAS (ex STEF MEDITERRANEE),DREAL PACA,UD 84,UnitA(c) risques chroniques,"84000",2 Impasse Charles Tellier,AVIGNON,AVIGNON,"84007","6400508",43.934933000000001,4.837096000000000,2 Impasse Charles Tellier 84000 Avignon,"0.476319667405765",,housenumber,84007_1198_00002,"2",2 Impasse Charles Tellier,Impasse Charles Tellier,"84000",Avignon,"84, Vaucluse, Provence-Alpes-CA'te d'Azur","84007",,,,ok,74.590473502436225,Non,Non Seveso,"1","112",847501.375291408854537,6316819.182123913429677
SCHOEPFER ETABLISSEMENT (SA),DDPP 84,SSPAE 84,SSPAE,"84000",7  Avenue de Fontcouverte BP 20756 - ZI,AVIGNON,AVIGNON,"84007","6401285",43.938904000000001,4.840012000000000,7 Avenue de Fontcouverte 84000 Avignon,"0.47407773835920175","0.362894820295983",housenumber,84007_2129_00007,"7",7 Avenue de Fontcouverte,Avenue de Fontcouverte,"84000",Avignon,"84, Vaucluse, Provence-Alpes-CA'te d'Azur","84007",,,,ok,36.637597198272005,Non,Non Seveso,"1","114",847725.179003021446988,6317265.756629316136241
SociA(c)tA(c) de Production GrainiA(c)re,DREAL PACA,UD 84,UnitA(c) risques accidentels,"84000",481 rue du Petit Mas,AVIGNON,AVIGNON,"84007","6413620",43.934122000000002,4.789038000000000,481 Rue du Petit Mas 84000 Avignon,"0.4823024839948783",,housenumber,84007_4705_00481,"481",481 Rue du Petit Mas,Rue du Petit Mas,"84000",Avignon,"84, Vaucluse, Provence-Alpes-CA'te d'Azur","84007",,,,ok,116.173255937329145,Non,Non Seveso,"1","63",843645.484642483061180,6316640.491759686730802
SUEZ RV MEDITERRANEE (ex SITA SUD),DREAL PACA,UD 84,UnitA(c) dA(c)chets,"84000",Lieu-dit clos des souspirous MONTFAVET (84140),AVIGNON,AVIGNON,"84007","6406297",43.932831000000000,4.858510000000000,Avenue des Souspirous 84000 Avignon,"0.35818055658627085","0.34819564995751906",street,84007_nuhtl6,,Avenue des Souspirous,Avenue des Souspirous,"84000",Avignon,"84, Vaucluse, Provence-Alpes-CA'te d'Azur","84007",,,,ok,151.408811772856325,Non,Non Seveso,"1","126",849225.897476893384010,6316625.914197997190058
AIR TOTAL - AA(c)roport Avignon-Provence,DREAL PACA,UD 84,UnitA(c) risques accidentels,"84000",335  Avenue ClA(c)ment Ader MONTFAVET,AVIGNON,AVIGNON,"84007","6408536",43.906685000000003,4.896488000000000,335 Avenue ClA(c)ment Ader 84000 Avignon,"0.4313926446280992","0.339312374227714",housenumber,84007_g5s5c9_00335,"335",335 Avenue ClA(c)ment Ader,Avenue ClA(c)ment Ader,"84000",Avignon,"84, Vaucluse, Provence-Alpes-CA'te d'Azur","84007",,,,ok,447.666674524645316,Non,Non Seveso,"1","175",852344.466898716171272,6313793.980463244020939
ISDND Les Lauriers - BAGNOLS EN FORET,DREAL PACA,UD 83,"PA'le CarriA""res - dA(c)chets","83600",3325 RD 4 Lieu-dit Les Lauriers,BAGNOLS-EN-FORET,BAGNOLS-EN-FORET,"83008","6405522",43.541026000000002,6.714538000000000,Impasse des Lauriers 83600 Bagnols-en-ForAat,"0.33631462488967345",,street,83008_q2aqb6,,Impasse des Lauriers,Impasse des Lauriers,"83600",Bagnols-en-ForAat,"83, Var, Provence-Alpes-CA'te d'Azur","83008",,,,ok,3144.158988188453804,Oui,Non Seveso,"1","1139",1000217.557625818066299,6278390.979318015277386
SYDEVOM (ex Commune de Banon),DREAL PACA,UD 04-05,PA'le Risque,"04150",RD 51 - lieu-dit LE SERRE,BANON,BANON,"04018","6406228",44.032305000000001,5.627208000000000,Lieu Dit le Serre 04150 Banon,"0.41190155080213897","0.2814033333333333",street,04018_taml9h,,Lieu Dit le Serre,Lieu Dit le Serre,"04150",Banon,"04, Alpes-de-Haute-Provence, Provence-Alpes-CA'te d'Azur","04018",,,,ok,2185.778297540368840,Non,Non Seveso,"2","729",910560.072137940558605,6329425.746331080794334
ISDI ComunautA(c) de Haute de Provence,DREAL PACA,UD 04-05,PA'le Territorial 04,"04150",D 51 Lieu dit Le bas Serre Les Combettes (en limite de la commune de Montsalier),BANON,BANON,"04018","6412511",44.032305000000001,5.627208000000000,Lieu Dit le Serre 04150 Banon,"0.23187950728660653","0.18603791443850268",street,04018_taml9h,,Lieu Dit le Serre,Lieu Dit le Serre,"04150",Banon,"04, Alpes-de-Haute-Provence, Provence-Alpes-CA'te d'Azur","04018",,,,ok,36.019761043843552,Non,Non Seveso,"2","729",910560.072137940558605,6329425.746331080794334
ELEVAGE DE L'ETANG DU VERT,DDCSPP 04,SPAAE 04,SPAAE,"04150",Combe de Vaux Route de Carniol,BANON,BANON,"04018","6411341",44.002395999999997,5.622211000000000,Route de Carniol 04150 Banon,"0.37002442260442253","0.3303557493857494",street,04018_0090,,Route de Carniol,Route de Carniol,"04150",Banon,"04, Alpes-de-Haute-Provence, Provence-Alpes-CA'te d'Azur","04018",,,,ok,3983.128502476212361,Non,Non Seveso,"1","726",910270.068594739888795,6326091.043108200654387
ISDI Mairie de BARATIER 05,DREAL PACA,UD 04-05,PA'le Territorial 05,"05200",Place du Village,BARATIER,BARATIER,"05012","6413527",44.538786000000002,6.495508000000000,Place du Village 05200 Baratier,"0.46665770562770553","0.3944089926289926",street,05012_0910,,Place du Village,Place du Village,"05200",Baratier,"05, Hautes-Alpes, Provence-Alpes-CA'te d'Azur","05012",,,,ok,4168.918860110191417,Non,Non Seveso,"1","1049",977620.933005979517475,6388336.332035816274583
ROUTIERE DU MIDI Baratier-Les Crots,DREAL PACA,UD 04-05,PA'le Territorial 05,"05200",Lieu-dit Grand Liou Crots Parcel C2633 Lieu-dit Drand Liou Baratier Parc ZA 1,BARATIER,BARATIER,"05012","6411257",44.541851999999999,6.491157000000000,Chemin du Grand Liou 05200 Baratier,"0.22479811594202895","0.18103147809025505",street,05012_0208,,Chemin du Grand Liou,Chemin du Grand Liou,"05200",Baratier,"05, Hautes-Alpes, Provence-Alpes-CA'te d'Azur","05012",,,,ok,1073.988401200678936,Non,Non Seveso,"1","1047",977260.539274860173464,6388661.290485312230885
A SUPPRIMER.CCVUSP Ubbaye Serre PonASSon,DREAL PACA,UD 04-05,PA'le Territorial 04,"04400","CC VALLEE DE L UBAYE SERRE PONCON 4 avenue des trois frA""res Arnaud",BARCELONNETTE,BARCELONNETTE,"04019","6413183",44.387070000000001,6.648872000000000,"4 Avenue des Trois FrA""res Arnaud 04400 Barcelonnette","0.40442517482517476",,housenumber,04019_0540_00004,"4","4 Avenue des Trois FrA""res Arnaud","Avenue des Trois FrA""res Arnaud","04400",Barcelonnette,"04, Alpes-de-Haute-Provence, Provence-Alpes-CA'te d'Azur","04019",,,,ok,25657.296115355391521,Non,Non Seveso,"1","1117",990571.480091202072799,6372051.781446876004338
REGIE PRA-LOUP UBAYE 04,DREAL PACA,UD 04-05,PA'le Territorial 04,"04400","-",BARCELONNETTE,BARCELONNETTE,"04019","6409959",44.376123999999997,6.638205000000000,Chemin du Pra Soubeiran 04400 Barcelonnette,"0.38918034965034964",,street,04019_0450,,Chemin du Pra Soubeiran,Chemin du Pra Soubeiran,"04400",Barcelonnette,"04, Alpes-de-Haute-Provence, Provence-Alpes-CA'te d'Azur","04019",,,,ok,1158.070157142800099,Non,Non Seveso,"1","1114",989778.641725034802221,6370797.881420769728720
A SUPPRIMER ISDI BarrAame,DREAL PACA,UD 04-05,PA'le Territorial 04,"04330",MAIRIE Site A  proximitA(c) de la dA(c)chetterie,BARREME,BARREME,"04022","6413174",43.957408000000001,6.372039000000000,Chemin de la Croix de la Mission 04330 BarrAame,"0.31589573921028463","0.2734425174825174",street,04022_jppvae,,Chemin de la Croix de la Mission,Chemin de la Croix de la Mission,"04330",BarrAame,"04, Alpes-de-Haute-Provence, Provence-Alpes-CA'te d'Azur","04022",,,,ok,1396.952380490475889,Non,Non Seveso,"1","1030",970578.253644204232842,6323378.897944286465645
ISDI BARREME CCAPV,DREAL PACA,UD 04-05,PA'le Territorial 04,"04330",RD 4085 Parcelles cadastrA(c)es section D 159 160  1073 et 1078,BARREME,BARREME,"04022","6413600",43.951251999999997,6.368453000000000,AllA(c)e des Condamines 04330 BarrAame,"0.25308839826839824","0.24419973521624008",street,04022_yb6x90,,AllA(c)e des Condamines,AllA(c)e des Condamines,"04330",BarrAame,"04, Alpes-de-Haute-Provence, Provence-Alpes-CA'te d'Azur","04022",,,,ok,1005.539531416359978,Non,Non Seveso,"1","1028",970319.852364693069831,6322683.213675405830145
ISDI BRAME PAN- Baudinard/Verdon,DREAL PACA,UD 83,"PA'le CarriA""res - dA(c)chets","83630",Mairie de Baudinard sur verdon 36 Grand rue,BAUDINARD-SUR-VERDON,BAUDINARD-SUR-VERDON,"83014","6412201",43.716092000000003,6.134823000000000,Grand Rue 83630 Baudinard-sur-Verdon,"0.33611891248937975","0.33035491228070174",street,83014_0050,,Grand Rue,Grand Rue,"83630",Baudinard-sur-Verdon,"83, Var, Provence-Alpes-CA'te d'Azur","83014",,,,ok,51.779255833085287,Non,Non Seveso,"1","951",952618.322310001589358,6295799.950839533470571
RHONEA -  BEAUMES-DE-VENISE,DDPP 84,SSPAE 84,SSPAE,"84190",228  Route de Carpentras Quartier Ravel,BEAUMES-DE-VENISE,BEAUMES-DE-VENISE,"84012","6401114",44.118910999999997,5.015051000000000,228 Route de Carpentras 84190 Beaumes-de-Venise,"0.5015481818181818","0.3565437154150197",housenumber,84012_0107_00228,"228",228 Route de Carpentras,Route de Carpentras,"84190",Beaumes-de-Venise,"84, Vaucluse, Provence-Alpes-CA'te d'Azur","84012",,,,ok,15.791375326378789,Non,Non Seveso,"1","282",861264.905992837040685,6337602.945745248347521
CAVE COOPERATIVE VINICOLE,DDPP 84,SSPAE 84,SSPAE,"84340",La Plantade,BEAUMONT-DU-VENTOUX,BEAUMONT-DU-VENTOUX,"84015","6409892",44.184173000000001,5.166135000000000,Place de la Mairie 84340 Beaumont-du-Ventoux,"0.4305985832349468","0.4102404856787048",street,84015_0030,,Place de la Mairie,Place de la Mairie,"84340",Beaumont-du-Ventoux,"84, Vaucluse, Provence-Alpes-CA'te d'Azur","84015",,,,ok,273.702445313150577,Non,Non Seveso,"1","407",873154.376764598069713,6345171.143629588186741
SCA LES VIGNERONS DU MONT VENTOUX,DDPP 84,SSPAE 84,SSPAE,"84410",quartier de la Salle,BEDOIN,BEDOIN,"84017","6401112",44.120505999999999,5.221731000000000,Route du Mont-ventoux 84410 BA(c)doin,"0.4153690909090909","0.4045035431235431",street,84017_0086,,Route du Mont-ventoux,Route du Mont-ventoux,"84410",BA(c)doin,"84, Vaucluse, Provence-Alpes-CA'te d'Azur","84017",,,,ok,3568.926729444048760,Non,Non Seveso,"1","451",877796.397309378720820,6338223.831967873498797
SIBELCO BA(c)doin,DREAL PACA,UD 84,"UnitA(c) carriA""res","84410",ROUTE DES CRANS,BEDOIN,BEDOIN,"84017","6402097",44.109305999999997,5.186000000000000,Chemin des Crans 84410 BA(c)doin,"0.46777223776223775",,street,84017_0026,,Chemin des Crans,Chemin des Crans,"84410",BA(c)doin,"84, Vaucluse, Provence-Alpes-CA'te d'Azur","84017",,,,ok,965.955516828813302,Non,Non Seveso,"2","421",874972.167352050775662,6336900.123981025069952
CARRIERE SIBELCO (Les Terriers),DREAL PACA,UD 84,"UnitA(c) carriA""res","84410",Les Terriers Plaine des BA(c)rards,BEDOIN,BEDOIN,"84017","6400548",44.123252999999998,5.172926000000000,Chemin de Berard 84410 BA(c)doin,"0.29359502164502166",,street,84017_0063,,Chemin de Berard,Chemin de Berard,"84410",BA(c)doin,"84, Vaucluse, Provence-Alpes-CA'te d'Azur","84017",,,,ok,1222.709725412669513,Non,Non Seveso,"1","411",873883.324332314776257,6338420.235675162635744
CARRIERE SIBELCO Les Crans,DREAL PACA,UD 84,"UnitA(c) carriA""res","84410",Les Crans Chemin des Crans,BEDOIN,BEDOIN,"84017","6400550",44.109305999999997,5.186000000000000,Chemin des Crans 84410 BA(c)doin,"0.40670654289372593",,street,84017_0026,,Chemin des Crans,Chemin des Crans,"84410",BA(c)doin,"84, Vaucluse, Provence-Alpes-CA'te d'Azur","84017",,,,ok,942.162140119915762,Non,Non Seveso,"2","421",874972.167352050775662,6336900.123981025069952
ISDI BRONZO,DREAL PACA,UD 13,PA'le DA(c)chet MatA(c)riau,"13720",Lieu dit Jean Louis,BELCODENE,BELCODENE,"13013","6412221",43.424588000000000,5.596383000000000,"Chemin du Puits de Buisson 13720 BelcodA""ne","0.3698964171122995","0.35910390461997016",street,13013_0039,,Chemin du Puits de Buisson,Chemin du Puits de Buisson,"13720","BelcodA""ne","13, Bouches-du-RhA'ne, Provence-Alpes-CA'te d'Azur","13013",,,,ok,3235.302995932423983,Non,Non Seveso,"1","699",910310.746264943969436,6261844.212629739195108
BPO -VAPO EBD DIB,DREAL PACA,UD 13,PA'le Seveso,"13131",Chemin dA(c)partemental 54 BP 14,BERRE-L'ETANG,BERRE-L'ETANG,"13014","6401008",43.502952000000001,5.162069000000000,Route Departementale 21f 13130 Berre-l'A%0tang,"0.3828817962760131",,street,13014_vq9gn8,,Route Departementale 21f,Route Departementale 21f,"13130",Berre-l'A%0tang,"13, Bouches-du-RhA'ne, Provence-Alpes-CA'te d'Azur","13014",,,,ok,1926.096856045162667,Oui,Seveso seuil haut,"4","400",874901.900076685706154,6269491.142471863888204
CPB - UCB (KRATON  ADDITIFS et PVC),DREAL PACA,UD 13,PA'le Seveso,"13130",Usine chimique de Berre Chemin dA(c)partemental 54 - BP 14,BERRE-L'ETANG,BERRE-L'ETANG,"13014","6401007",43.502952000000001,5.162069000000000,Route Departementale 21f 13130 Berre-l'A%0tang,"0.3052832665639445",,street,13014_vq9gn8,,Route Departementale 21f,Route Departementale 21f,"13130",Berre-l'A%0tang,"13, Bouches-du-RhA'ne, Provence-Alpes-CA'te d'Azur","13014",,,,ok,1309.014492574253154,Oui,Seveso seuil haut,"4","400",874901.900076685706154,6269491.142471863888204
ETHNICRAFT- AZUR,DREAL PACA,UD 13,PA'le Chronique Risque,"13130",ZAC EUROFLORY PARC RD 21F  Lot 21,BERRE-L'ETANG,BERRE-L'ETANG,"13014","6407098",43.521254999999996,5.166043000000000,Les Grands Lots 13130 Berre-l'A%0tang,"0.29041593073593075","0.28326386613386606",street,13014_B067,,Les Grands Lots,Les Grands Lots,"13130",Berre-l'A%0tang,"13, Bouches-du-RhA'ne, Provence-Alpes-CA'te d'Azur","13014",,,,ok,2540.662221671087082,Non,Non Seveso,"1","406",875167.501480382983573,6271533.513539362698793
GOODMAN BERRE LOGISTICS,DREAL PACA,UD 13,PA'le Chronique Risque,"13130",ZAC Euroflory,BERRE-L'ETANG,BERRE-L'ETANG,"13014","6410534",43.517918999999999,5.195279000000000,Euroflory Parc 13130 Berre-l'A%0tang,"0.440947217630854","0.37938055235903334",locality,13014_A062,,Euroflory Parc,,"13130",Berre-l'A%0tang,"13, Bouches-du-RhA'ne, Provence-Alpes-CA'te d'Azur","13014",,,,ok,310.780349244082061,Non,Non Seveso,"1","425",877541.513402671553195,6271228.165656845085323
SCA LES VIGNERONS DE MISTRAL,DREAL PACA,UD 13,Equipe Martigues,"13130","Avenue de SylvanA""s",BERRE-L'ETANG,BERRE-L'ETANG,"13014","6401578",43.486449999999998,5.161326000000000,"Avenue de SylvanA""s 13130 Berre-l'A%0tang","0.5247653535353535","0.45236220095693774",street,13014_0775,,"Avenue de SylvanA""s","Avenue de SylvanA""s","13130",Berre-l'A%0tang,"13, Bouches-du-RhA'ne, Provence-Alpes-CA'te d'Azur","13014",,,,ok,5832.046480289239298,Non,Non Seveso,"1","399",874892.007553216302767,6267656.011246276088059
LINDE France Berre,DREAL PACA,UD 13,PA'le Seveso,"13130",Lotissement industriel La Minaude Zone nord de l'Aubette,BERRE-L'ETANG,BERRE-L'ETANG,"13014","6402114",43.486167999999999,5.168008000000000,Lotissement la Cerisaie 13130 Berre-l'A%0tang,"0.38496146853146845","0.3804897835497835",street,13014_A026,,Lotissement la Cerisaie,Lotissement la Cerisaie,"13130",Berre-l'A%0tang,"13, Bouches-du-RhA'ne, Provence-Alpes-CA'te d'Azur","13014",,,,ok,2120.547149121316124,Non,Seveso seuil haut,"1","409",875433.432103444240056,6267639.501656766980886
LBSF PLP Port de la Pointe,DREAL PACA,UD 13,PA'le Seveso,"13130",DA(c)pA't du Port de la Pointe,BERRE-L'ETANG,BERRE-L'ETANG,"13014","6400988",43.472217000000001,5.165102000000000,Route du Grand Port 13130 Berre-l'A%0tang,"0.3463721212121212","0.33722654983570644",street,13014_0378,,Route du Grand Port,Route du Grand Port,"13130",Berre-l'A%0tang,"13, Bouches-du-RhA'ne, Provence-Alpes-CA'te d'Azur","13014",,,,ok,1899.159682109428559,Non,Seveso seuil haut,"1","404",875240.852480124682188,6266082.982213546521962
LBSF -Lyondell Basell Services France,DREAL PACA,UD 13,PA'le Seveso,"13130",Chemin departemental 54 BP 14,BERRE-L'ETANG,BERRE-L'ETANG,"13014","6410871",43.502952000000001,5.162069000000000,Route Departementale 21f 13130 Berre-l'A%0tang,"0.3524327272727273",,street,13014_vq9gn8,,Route Departementale 21f,Route Departementale 21f,"13130",Berre-l'A%0tang,"13, Bouches-du-RhA'ne, Provence-Alpes-CA'te d'Azur","13014",,,,ok,1731.434117927929037,Oui,Non Seveso,"4","400",874901.900076685706154,6269491.142471863888204
Orion Ingineered (ex SN2A),DREAL PACA,UD 13,PA'le Chronique Risque,"13130",Route DA(c)partementale 21F BP 98 Les Grands Champs,BERRE-L'ETANG,BERRE-L'ETANG,"13014","6401011",43.502952000000001,5.162069000000000,Route Departementale 21f 13130 Berre-l'A%0tang,"0.44222864564007414",,street,13014_vq9gn8,,Route Departementale 21f,Route Departementale 21f,"13130",Berre-l'A%0tang,"13, Bouches-du-RhA'ne, Provence-Alpes-CA'te d'Azur","13014",,,,ok,2140.869516975476927,Oui,Non Seveso,"4","400",874901.900076685706154,6269491.142471863888204
ORTEC INDUSTRIE - VALORTEC Berre,DREAL PACA,UD 13,PA'le DA(c)chet MatA(c)riau,"13130",ZONE INDUSTRIELLE VAINE,BERRE-L'ETANG,BERRE-L'ETANG,"13014","6401732",43.481642000000001,5.172736000000000,Rue Pierre Brossolette 13130 Berre-l'A%0tang,"0.3421084715284715","0.3390458851674641",street,13014_0118,,Rue Pierre Brossolette,Rue Pierre Brossolette,"13130",Berre-l'A%0tang,"13, Bouches-du-RhA'ne, Provence-Alpes-CA'te d'Azur","13014",,,,ok,1871.573043745325322,Oui,Non Seveso,"1","410",875829.762076114071533,6267147.145792871713638
FAURE,DREAL PACA,UD 13,PA'le DA(c)chet MatA(c)riau,"13130",Z.I de VaA-ne,BERRE-L'ETANG,BERRE-L'ETANG,"13014","6407748",43.482599000000000,5.178270000000000,Residence les Mouettes 1 13130 Berre-l'A%0tang,"0.3833757864357864","0.312751884057971",street,13014_2ouuux,,Residence les Mouettes 1,Residence les Mouettes 1,"13130",Berre-l'A%0tang,"13, Bouches-du-RhA'ne, Provence-Alpes-CA'te d'Azur","13014",,,,ok,1482.377514527904623,Oui,Non Seveso,"1","414",876274.556399282650091,6267265.813945590518415
VAL DE L'ARC (ex KATOEN NATIE),DREAL PACA,UD 13,Equipe Martigues,"13130",ZI Euro Flory Parc - Lot nAdeg14 RD 21F,BERRE-L'ETANG,BERRE-L'ETANG,"13014","6402030",43.517702999999997,5.192497000000000,Voie Communale ZAC de Flory 13130 Berre-l'A%0tang,"0.34869393939393933","0.3122912185686654",street,13014_0296,,Voie Communale ZAC de Flory,Voie Communale ZAC de Flory,"13130",Berre-l'A%0tang,"13, Bouches-du-RhA'ne, Provence-Alpes-CA'te d'Azur","13014",,,,ok,1071.402702649259936,Non,Non Seveso,"1","423",877317.245655825594440,6271197.916061240248382
BAYER CROPSCIENCE,DDPP 06,SA,SA,"06410",355 Rue DostoA-evski,BIOT,BIOT,"06018","6404836",43.635734999999997,7.086193000000000,355 Chemin de Roquefort 06410 Biot,"0.32914663911845726","0.3124559938366718",housenumber,06018_0670_00355,"355",355 Chemin de Roquefort,Chemin de Roquefort,"06410",Biot,"06, Alpes-Maritimes, Provence-Alpes-CA'te d'Azur","06018",,,,ok,918.806327538136884,Non,Non Seveso,"1","1245",1029685.512218672549352,6290386.634428680874407
COULOMP,DREAL PACA,SPR,UnitA(c) ICPE,"06410",1376 route de la Mer,BIOT,BIOT,"06018","6401787",43.619402000000001,7.109308000000000,1376 Route de la Mer 06410 Biot,"0.6785292561983469","0.4304890909090909",housenumber,06018_0450_01376,"1376",1376 Route de la Mer,Route de la Mer,"06410",Biot,"06, Alpes-Maritimes, Provence-Alpes-CA'te d'Azur","06018",,,,ok,73.677122998783545,Non,Non Seveso,"1","1250",1031643.239782768534496,6288670.654955346137285
CARRIERE SILICES ET REFRACTAIRES,DREAL PACA,UD 06,PA'le DACEN,"06410",1114  route d'Antibes,BIOT,BIOT,"06018","6402089",43.618690999999998,7.102403000000000,1114 Route d'Antibes 06410 Biot,"0.4508360079051383",,housenumber,06018_0050_01114,"1114",1114 Route d'Antibes,Route d'Antibes,"06410",Biot,"06, Alpes-Maritimes, Provence-Alpes-CA'te d'Azur","06018",,,,ok,443.496137388777754,Non,Non Seveso,"1","1249",1031090.574612024007365,6288562.765138961374760
EXP  VICAT,DREAL PACA,UD 06,PA'le DACEN,"06440",lieu-dit La Couala,BLAUSASC,BLAUSASC,"06019","6406601",43.806747999999999,7.363287000000000,Place de la Victoire 06440 Blausasc,"0.3709033333333333","0.3626006451612903",street,06019_0055,,Place de la Victoire,Place de la Victoire,"06440",Blausasc,"06, Alpes-Maritimes, Provence-Alpes-CA'te d'Azur","06019",,,,ok,76.664064296228219,Non,Non Seveso,"1","1338",1050970.564611946698278,6310558.636654718779027
Cimenterie  VICAT,DREAL PACA,UD 06,PA'le ERASO,"06440",Usine de la Grave de Peille 2693 La Grave de Blausasc,BLAUSASC,BLAUSASC,"06019","6400280",43.789593000000004,7.374545000000000,LaEUR(tm)Usine 06440 Blausasc,"0.2316765634365634",,street,06019_yy4i2t,,LaEUR(tm)Usine,LaEUR(tm)Usine,"06440",Blausasc,"06, Alpes-Maritimes, Provence-Alpes-CA'te d'Azur","06019",,,,ok,430.466895529422288,Oui,Non Seveso,"1","1339",1051980.760133767733350,6308705.303085641935468
CV ALCYON,DREAL PACA,UD 84,UnitA(c) dA(c)chets,"84500",Quartier St Pierre Lieu dit l'Usine,BOLLENE,BOLLENE,"84019","6402733",44.308892999999998,4.734279000000000,"LaEUR(tm)Usine 84500 BollA""ne","0.3333363636363636",,street,84019_3xqhm8,,LaEUR(tm)Usine,LaEUR(tm)Usine,"84500","BollA""ne","84, Vaucluse, Provence-Alpes-CA'te d'Azur","84019",,,,ok,612.632250676359945,Oui,Non Seveso,"1","36",838335.036049749236554,6358171.267538684420288
"Parc Eolien de BollA""ne CN AIR",DREAL PACA,UD 84,UnitA(c) risques chroniques,"84500",Centrale CNR AndrA(c) Blondel 1130 Promenade LA(c)on Perrier,BOLLENE,BOLLENE,"84019","6410780",44.300384000000001,4.745778000000000,"1130 Promenade Leon Perrier 84500 BollA""ne","0.3945422859664607",,housenumber,84019_0698_01130,"1130",1130 Promenade Leon Perrier,Promenade Leon Perrier,"84500","BollA""ne","84, Vaucluse, Provence-Alpes-CA'te d'Azur","84019",,,,ok,983.091696905016875,Non,Non Seveso,"1","41",839273.004565630340949,6357246.408586063422263
EGIDE SA,DREAL PACA,UD 84,UnitA(c) risques chroniques,"84500",Site du Sactar CS 20205,BOLLENE,BOLLENE,"84019","6400389",44.306941999999999,4.734282000000000,"Le Sactar 84500 BollA""ne","0.40863013986013985","0.37908215007215",street,84019_06kk3m,,Le Sactar,Le Sactar,"84500","BollA""ne","84, Vaucluse, Provence-Alpes-CA'te d'Azur","84019",,,,ok,454.154973924186663,Non,Non Seveso,"3","37",838340.035369735443965,6357954.580307682976127
METS DE PROVENCE (ex MIDI CONSERVE),DREAL PACA,UD 84,UnitA(c) risques chroniques,"84500","ZI La CroisiA""re rue Henri Pelegrin",BOLLENE,BOLLENE,"84019","6401453",44.272520000000000,4.713472000000000,"Rue Henri Pellegrin 84500 BollA""ne","0.3698897520661157","0.3587931313131313",street,84019_0679,,Rue Henri Pellegrin,Rue Henri Pellegrin,"84500","BollA""ne","84, Vaucluse, Provence-Alpes-CA'te d'Azur","84019",,,,ok,113.980674935822279,Non,Non Seveso,"1","28",836763.303677080781199,6354095.122810292057693
ORANO DS TRIADE,DREAL PACA,UD 84,UnitA(c) dA(c)chets,"84500",Site du SACTAR,BOLLENE,BOLLENE,"84019","6400433",44.306941999999999,4.734282000000000,"Le Sactar 84500 BollA""ne","0.4233154545454545","0.3697724633431085",street,84019_06kk3m,,Le Sactar,Le Sactar,"84500","BollA""ne","84, Vaucluse, Provence-Alpes-CA'te d'Azur","84019",,,,ok,383.550450926204235,Non,Non Seveso,"3","37",838340.035369735443965,6357954.580307682976127
SAS CORBET (ancien ETS CHAROUSSET),DDPP 84,SSPAE 84,SSPAE,"84500","ZI La croisiA""re",BOLLENE,BOLLENE,"84019","6401093",44.277481000000002,4.719114000000000,"Route de la Croisiere 84500 BollA""ne","0.4118234343434343","0.31957213903743314",street,84019_0003,,Route de la Croisiere,Route de la Croisiere,"84500","BollA""ne","84, Vaucluse, Provence-Alpes-CA'te d'Azur","84019",,,,ok,504.993498163978302,Non,Non Seveso,"2","30",837201.558992007048801,6354655.927364757284522
VALABREGUE,DREAL PACA,UD 84,UnitA(c) risques chroniques,"84500",985. av Emile Lachaux BP13,BOLLENE,BOLLENE,"84019","6400439",44.277267000000002,4.763411000000000,"985 Avenue Emile Lachaux 84500 BollA""ne","0.5959208150470219",,housenumber,84019_0233_00985,"985",985 Avenue Emile Lachaux,Avenue Emile Lachaux,"84500","BollA""ne","84, Vaucluse, Provence-Alpes-CA'te d'Azur","84019",,,,ok,21.396643746157213,Non,Non Seveso,"1","49",840736.829150433535688,6354710.118692071177065
"UDCA-SIV Silo de BollA""ne",DREAL PACA,UD 84,UnitA(c) risques accidentels,"84500",Quai du Tricastin,BOLLENE,BOLLENE,"84019","6400385",44.303995999999998,4.753169000000000,"Chemin de la Carriere du Planas 84500 BollA""ne","0.35484356731875716","0.34590818181818184",street,84019_0119,,Chemin de la Carriere du Planas,Chemin de la Carriere du Planas,"84500","BollA""ne","84, Vaucluse, Provence-Alpes-CA'te d'Azur","84019",,,,ok,1473.663088434491328,Non,Non Seveso,"1","44",839853.631432484602556,6357660.646750274114311
CARRIERE SPRB VALABREGUE,DREAL PACA,UD 84,"UnitA(c) carriA""res","84500","NoyA""res Jonqueirolles",BOLLENE,BOLLENE,"84019","6402055",44.304375000000000,4.753779000000000,"Chemin de la Carriere 84500 BollA""ne","0.31845961722488036","0.3123335828877005",street,84019_0298,,Chemin de la Carriere,Chemin de la Carriere,"84500","BollA""ne","84, Vaucluse, Provence-Alpes-CA'te d'Azur","84019",,,,ok,4333.165385689721916,Non,Non Seveso,"1","45",839901.349212240427732,6357703.821722810156643
VALOREF,DREAL PACA,UD 84,UnitA(c) dA(c)chets,"84500","ZI La CroisiA""re Site industriel fluvial",BOLLENE,BOLLENE,"84019","6400441",44.277481000000002,4.719114000000000,"Route de la Croisiere 84500 BollA""ne","0.4169806402048655","0.3269498754669987",street,84019_0003,,Route de la Croisiere,Route de la Croisiere,"84500","BollA""ne","84, Vaucluse, Provence-Alpes-CA'te d'Azur","84019",,,,ok,4060.022871827729887,Oui,Non Seveso,"2","30",837201.558992007048801,6354655.927364757284522
DECHETERIE DE BOLLENE,DREAL PACA,UD 84,UnitA(c) dA(c)chets,"84500",Zone industrielle Les Sactars RD243,BOLLENE,BOLLENE,"84019","6412434",44.306941999999999,4.734282000000000,"Le Sactar 84500 BollA""ne","0.28943115702479333",,street,84019_06kk3m,,Le Sactar,Le Sactar,"84500","BollA""ne","84, Vaucluse, Provence-Alpes-CA'te d'Azur","84019",,,,ok,310.999866578168110,Non,Non Seveso,"3","37",838340.035369735443965,6357954.580307682976127
CAVE DES VIGNERONS DE BONNIEUX,DDPP 84,SSPAE 84,SSPAE,"84480",Quartier de la gare,BONNIEUX,BONNIEUX,"84020","6411749",43.838113000000000,5.290822000000000,Route de la Gare 84480 Bonnieux,"0.3811363760896637","0.34522468354430375",street,84020_zfry2d,,Route de la Gare,Route de la Gare,"84480",Bonnieux,"84, Vaucluse, Provence-Alpes-CA'te d'Azur","84020",,,,ok,2115.643766112915728,Non,Non Seveso,"1","504",884234.138584360945970,6307017.299944307655096
CARRIERE SOTEC - Baguier,DREAL PACA,UD 83,"PA'le CarriA""res - dA(c)chets","83230",Baguier,BORMES-LES-MIMOSAS,BORMES-LES-MIMOSAS,"83019","6402075",43.153027999999999,6.345366000000000,Route du Baguier 83230 Bormes-les-Mimosas,"0.5165786501377411","0.5087978787878789",street,83019_0063,,Route du Baguier,Route du Baguier,"83230",Bormes-les-Mimosas,"83, Var, Provence-Alpes-CA'te d'Azur","83019",,,,ok,350.607622321147801,Non,Non Seveso,"1","1021",972225.792588440119289,6233965.585623323917389
CARRIERE SOTEC - Coste Dreche,DREAL PACA,UD 83,"PA'le CarriA""res - dA(c)chets","83230",466 chemin du Landon BP26,BORMES-LES-MIMOSAS,BORMES-LES-MIMOSAS,"83019","6401992",43.157026000000002,6.347716000000000,466 Chemin du Landon 83230 Bormes-les-Mimosas,"0.5295368017524644",,housenumber,83019_1021_00466,"466",466 Chemin du Landon,Chemin du Landon,"83230",Bormes-les-Mimosas,"83, Var, Provence-Alpes-CA'te d'Azur","83019",,,,ok,336.857527667885051,Non,Non Seveso,"1","1022",972398.067938776803203,6234417.778483608737588
ISDI La Manjastre - BORMES,DREAL PACA,UD 83,"PA'le CarriA""res - dA(c)chets","83230",Lieu-dit MANJASTRE BASSE,BORMES-LES-MIMOSAS,BORMES-LES-MIMOSAS,"83019","6412184",43.157874999999997,6.312570000000000,Chemin de Manjastre 83230 Bormes-les-Mimosas,"0.4259515010570824",,street,83019_0496,,Chemin de Manjastre,Chemin de Manjastre,"83230",Bormes-les-Mimosas,"83, Var, Provence-Alpes-CA'te d'Azur","83019",,,,ok,3628.906206652951369,Non,Non Seveso,"2","1007",969536.024684538366273,6234391.477316104806960
QUAI TRANSIT+DECHETERIE-PROPOLYS-BORMES,DREAL PACA,UD 83,"PA'le CarriA""res - dA(c)chets","83230",Lieu dit Manjastre,BORMES-LES-MIMOSAS,BORMES-LES-MIMOSAS,"83019","6406634",43.157874999999997,6.312570000000000,Chemin de Manjastre 83230 Bormes-les-Mimosas,"0.4307773122529644",,street,83019_0496,,Chemin de Manjastre,Chemin de Manjastre,"83230",Bormes-les-Mimosas,"83, Var, Provence-Alpes-CA'te d'Azur","83019",,,,ok,564.619490610646494,Non,Non Seveso,"2","1007",969536.024684538366273,6234391.477316104806960
ALTEO GARDANNE MANGE GARRI,DREAL PACA,UD 13,PA'le Chronique Risque,"13320",Mange Garri,BOUC-BEL-AIR,BOUC-BEL-AIR,"13015","6400002",43.461486000000001,5.413891000000000,Avenue Marie Mauron 13320 Bouc-Bel-Air,"0.37903125778331254","0.37633489414694893",street,13015_atuw6a,,Avenue Marie Mauron,Avenue Marie Mauron,"13320",Bouc-Bel-Air,"13, Bouches-du-RhA'ne, Provence-Alpes-CA'te d'Azur","13015",,,,ok,2198.379647643559565,Non,Non Seveso,"1","613",895408.053779504261911,6265474.630155891180038
Station ESSO express - Bouc Bel Air,DREAL PACA,UD 13,Equipe Aix en Provence,"13320",Le Collet Rouge RN8,BOUC-BEL-AIR,BOUC-BEL-AIR,"13015","6407374",43.435571000000003,5.394780000000000,Collet Rouge 13320 Bouc-Bel-Air,"0.39605217237308143","0.3841068983957219",street,13015_B029,,Collet Rouge,Collet Rouge,"13320",Bouc-Bel-Air,"13, Bouches-du-RhA'ne, Provence-Alpes-CA'te d'Azur","13015",,,,ok,194.061243704125701,Non,Non Seveso,"1","598",893948.813210853724740,6262548.337718474678695
LAFARGE CIMENTS cimenterie LA MALLE,DREAL PACA,UD 13,PA'le Chronique Risque,"13320","BP 6 - Usine de La Malle 795 ave des FrA""res LumiA""re",BOUC-BEL-AIR,BOUC-BEL-AIR,"13015","6401567",43.423327000000000,5.390523000000000,"Avenue des FrA""res LumiA""re 13320 Bouc-Bel-Air","0.38395306306306304","0.260551918265221",street,13015_2652,,"Avenue des FrA""res LumiA""re","Avenue des FrA""res LumiA""re","13320",Bouc-Bel-Air,"13, Bouches-du-RhA'ne, Provence-Alpes-CA'te d'Azur","13015",,,,ok,481.103334287564337,Oui,Non Seveso,"1","595",893645.347919164923951,6261177.547412161715329
CARRIERE LAFARGEHOLCIM Ciments (La Malle),DREAL PACA,UD 13,PA'le DA(c)chet MatA(c)riau,"13320","795  avenue des FrA""res LumiA""re",BOUC-BEL-AIR,BOUC-BEL-AIR,"13015","6400643",43.418306000000001,5.384736000000000,"795 Avenue des FrA""res LumiA""re 13320 Bouc-Bel-Air","0.5075957673509286",,housenumber,13015_2652_00795,"795","795 Avenue des FrA""res LumiA""re","Avenue des FrA""res LumiA""re","13320",Bouc-Bel-Air,"13, Bouches-du-RhA'ne, Provence-Alpes-CA'te d'Azur","13015",,,,ok,586.801684610501411,Non,Non Seveso,"1","589",893193.564943993813358,6260605.520422995090485
LOMA ENVIRONNEMENT,DREAL PACA,UD 13,PA'le DA(c)chet MatA(c)riau,"13320",rd 6 Chez EntrepA't Poujols,BOUC-BEL-AIR,BOUC-BEL-AIR,"13015","6414171",43.425696000000002,5.383608000000000,Route DA(c)partementale 6 13320 Bouc-Bel-Air,"0.3411957206208426",,street,13015_n50zaf,,Route DA(c)partementale 6,Route DA(c)partementale 6,"13320",Bouc-Bel-Air,"13, Bouches-du-RhA'ne, Provence-Alpes-CA'te d'Azur","13015",,,,ok,2602.341250127049079,Non,Non Seveso,"1","587",893077.418100903159939,6261423.818124786950648
MALABAR,DREAL PACA,UD 13,Equipe Aix en Provence,"13320",282  rue Paul Ricard,BOUC-BEL-AIR,BOUC-BEL-AIR,"13015","6404426",43.420732999999998,5.392699000000000,282 Rue Paul Ricard 13320 Bouc-Bel-Air,"0.7063910873440284",,housenumber,13015_7480_00282,"282",282 Rue Paul Ricard,Rue Paul Ricard,"13320",Bouc-Bel-Air,"13, Bouches-du-RhA'ne, Provence-Alpes-CA'te d'Azur","13015",,,,ok,109.262487179289280,Non,Non Seveso,"1","596",893830.297507629031315,6260894.684028751216829
SAS LOGISTIQUE FRANCE (EX DECATHLON),DREAL PACA,UD 13,PA'le Chronique Risque,"13320",ZA LES CHABAUDS AV FERDINAND DE LESSEPS,BOUC-BEL-AIR,BOUC-BEL-AIR,"13015","6401640",43.425168999999997,5.394031000000000,Avenue Ferdinand de Lesseps 13320 Bouc-Bel-Air,"0.4248923492349234","0.3622415121512151",street,13015_2203,,Avenue Ferdinand de Lesseps,Avenue Ferdinand de Lesseps,"13320",Bouc-Bel-Air,"13, Bouches-du-RhA'ne, Provence-Alpes-CA'te d'Azur","13015",,,,ok,350.778015891837015,Non,Non Seveso,"1","597",893923.221299640717916,6261390.808632808737457
CARRIERE DE BOULBON SAS,DREAL PACA,UD 84,"UnitA(c) carriA""res","13150",Le Grand Defens,BOULBON,BOULBON,"13017","6401322",43.880701999999999,4.724112000000000,"Chemin des CarriA""res de Pierres 13150 Boulbon","0.3772794348894349",,street,13017_0215,,"Chemin des CarriA""res de Pierres","Chemin des CarriA""res de Pierres","13150",Boulbon,"13, Bouches-du-RhA'ne, Provence-Alpes-CA'te d'Azur","13017",,,,ok,1556.263360922837137,Non,Non Seveso,"1","31",838562.887060441426001,6310590.000358729623258
CARRIERE COLAS EX/SCREG EX /COZZI Braux,DREAL PACA,UD 04-05,PA'le Territorial 04,"04240",Barmettes - Pont du Gay,BRAUX,BRAUX,"04032","6401617",43.966949000000000,6.695201000000000,Route du Pont du Gay 04240 Braux,"0.29594801752464406","0.2909005695509309",street,04032_fw19kq,,Route du Pont du Gay,Route du Pont du Gay,"04240",Braux,"04, Alpes-de-Haute-Provence, Provence-Alpes-CA'te d'Azur","04032",,,,ok,206.278549099693066,Non,Non Seveso,"1","1129",996441.635765249491669,6325598.279045653529465
ISDI MAIRIE DE BREZIERS,DREAL PACA,UD 04-05,PA'le Territorial 05,"05190",Lieu-dit LES GUISSONS,BREZIERS,BREZIERS,"05022","6412316",44.426172000000001,6.199387000000000,Rue de la Mairie 05190 BrA(c)ziers,"0.35426714285714284",,street,05022_c63ywx,,Rue de la Mairie,Rue de la Mairie,"05190",BrA(c)ziers,"05, Hautes-Alpes, Provence-Alpes-CA'te d'Azur","05022",,,,ok,902.152513984031089,Non,Non Seveso,"1","974",954622.549306899309158,6374839.787636916153133
DECHETTERIE DE BRIANCON,DREAL PACA,UD 04-05,PA'le Territorial 04,"05100",Fontchrystiane,BRIANCON,BRIANCON,"05023","6411093",44.891126000000000,6.645251000000000,Chemin de Fontchristianne 05100 BrianASSon,"0.5461313997113997","0.4636081818181818",street,05023_0281,,Chemin de Fontchristianne,Chemin de Fontchristianne,"05100",BrianASSon,"05, Hautes-Alpes, Provence-Alpes-CA'te d'Azur","05023",,,,ok,573.333970743452369,Non,Non Seveso,"1","1115",987699.517712063738145,6427968.626632313244045
NOUVEAU Christophe (vhu),DREAL PACA,UD 04-05,PA'le Territorial 05,"05100",ZI Le Chazal,BRIANCON,BRIANCON,"05023","6410002",44.890265999999997,6.647661000000000,Le Chazal 05100 BrianASSon,"0.4205298347107438",,street,05023_m725hy,,Le Chazal,Le Chazal,"05100",BrianASSon,"05, Hautes-Alpes, Provence-Alpes-CA'te d'Azur","05023",,,,ok,2392.551887624251776,Non,Non Seveso,"1","1116",987894.001334094558842,6427881.993375332094729
CAVE MINUTY -  BRIGNOLES,DREAL PACA,UD 83,"PA'le CarriA""res - dA(c)chets","83170",195 rue de l'innovation Zac de Nicopolis,BRIGNOLES,BRIGNOLES,"83023","6413106",43.398091000000001,6.157823000000000,195 Zone daEUR(tm)Amenagement Nicopolis 83170 Brignoles,"0.34968510204081626","0.3142887042842215",housenumber,83023_ryjpyf_00195,"195",195 Zone daEUR(tm)Amenagement Nicopolis,Zone daEUR(tm)Amenagement Nicopolis,"83170",Brignoles,"83, Var, Provence-Alpes-CA'te d'Azur","83023",,,,ok,8693.189984264634404,Non,Non Seveso,"1","960",955883.856007512542419,6260558.245707660913467
ENTREPOT SUN LOG - NICOPOLIS - LOT A,DREAL PACA,UD 83,PA'le Risques accidentels et chroniques,"83170",ZAC NICOPOLIS,BRIGNOLES,BRIGNOLES,"83023","6414066",43.395358000000002,6.141662000000000,Z.A.C. Nicopolis 83170 Brignoles,"0.4115128194993412","0.37831608305274966",locality,83023_A021,,Z.A.C. Nicopolis,,"83170",Brignoles,"83, Var, Provence-Alpes-CA'te d'Azur","83023",,,,ok,14.835888980349194,Non,Non Seveso,"2","953",954587.078761842218228,6260202.458402868360281
ENTREPOT SUN LOG - NICOPOLIS - Lot B,DREAL PACA,UD 83,PA'le Risques accidentels et chroniques,"83170",ZAC NICOPOLIS,BRIGNOLES,BRIGNOLES,"83023","6414067",43.395358000000002,6.141662000000000,Z.A.C. Nicopolis 83170 Brignoles,"0.3755128937259923","0.363260376940133",locality,83023_A021,,Z.A.C. Nicopolis,,"83170",Brignoles,"83, Var, Provence-Alpes-CA'te d'Azur","83023",,,,ok,20.850485754426167,Non,Non Seveso,"2","953",954587.078761842218228,6260202.458402868360281
IDEX VAR BIOMASSE (IVB),DREAL PACA,UD 83,"PA'le CarriA""res - dA(c)chets","83170",Rue Vermentino Pole d'ActivitA(c)s de Nicopolis,BRIGNOLES,BRIGNOLES,"83023","6410680",43.398181999999998,6.140027000000000,Zone daEUR(tm)Amenagement Nicopolis 83170 Brignoles,"0.34968510204081626","0.3456366666666666",street,83023_ryjpyf,,Zone daEUR(tm)Amenagement Nicopolis,Zone daEUR(tm)Amenagement Nicopolis,"83170",Brignoles,"83, Var, Provence-Alpes-CA'te d'Azur","83023",,,,ok,253.598829581369927,Oui,Non Seveso,"2","952",954442.175584984594025,6260510.846068304963410
ENTREPOT ITM-Logistique Alim Inter,DREAL PACA,UD 83,PA'le Risques accidentels et chroniques,"83170",ZAC de Nicopolis,BRIGNOLES,BRIGNOLES,"83023","6400100",43.398181999999998,6.140027000000000,Zone daEUR(tm)Amenagement Nicopolis 83170 Brignoles,"0.3883369264069264","0.3698790909090909",street,83023_ryjpyf,,Zone daEUR(tm)Amenagement Nicopolis,Zone daEUR(tm)Amenagement Nicopolis,"83170",Brignoles,"83, Var, Provence-Alpes-CA'te d'Azur","83023",,,,ok,1115.462780510804350,Non,Non Seveso,"2","952",954442.175584984594025,6260510.846068304963410
LAUVIGE Conditionnement,DREAL PACA,UD 83,"PA'le CarriA""res - dA(c)chets","83170",1610 avenue des ChAanes Verts ZAC Nicopolis,BRIGNOLES,BRIGNOLES,"83023","6412578",43.396178999999997,6.150707000000000,Avenue des ChAanes Verts 83170 Brignoles,"0.45403055381400204","0.41935132942326486",street,83023_1249,,Avenue des ChAanes Verts,Avenue des ChAanes Verts,"83170",Brignoles,"83, Var, Provence-Alpes-CA'te d'Azur","83023",,,,ok,622.267987844056847,Non,Non Seveso,"1","958",955316.018646788317710,6260322.849739164113998
Cave les Vignerons de la Provence Verte,DREAL PACA,UD 83,"PA'le CarriA""res - dA(c)chets","83170",Route d'Aix,BRIGNOLES,BRIGNOLES,"83023","6410983",43.408622000000001,6.042687000000000,Route daEUR(tm)Aix 83170 Brignoles,"0.3708891919191919",,street,83023_0012,,Route daEUR(tm)Aix,Route daEUR(tm)Aix,"83170",Brignoles,"83, Var, Provence-Alpes-CA'te d'Azur","83023",,,,ok,631.766156861162244,Non,Non Seveso,"1","906",946513.797113667242229,6261361.651502268388867
OTTAVIANI & FILS,DREAL PACA,UD 83,"PA'le CarriA""res - dA(c)chets","83170",ZAC DE NICOPOLIS RUE DE LA CREATION,BRIGNOLES,BRIGNOLES,"83023","6413694",43.406249000000003,6.058026000000000,Rue Ottaviani 83170 Brignoles,"0.3961172727272727","0.3912987671232876",street,83023_0535,,Rue Ottaviani,Rue Ottaviani,"83170",Brignoles,"83, Var, Provence-Alpes-CA'te d'Azur","83023",,,,ok,60.889063803954485,Non,Non Seveso,"1","916",947766.132090487284586,6261146.084653047844768
CARRIERE PROVENCALE - Brignoles,DREAL PACA,UD 83,"PA'le CarriA""res - dA(c)chets","83170",Le Candelon,BRIGNOLES,BRIGNOLES,"83023","6401202",43.381551000000002,6.043824000000000,Chemin de la Carriere 83170 Brignoles,"0.41040727272727273","0.3798497653958944",street,83023_0095,,Chemin de la Carriere,Chemin de la Carriere,"83170",Brignoles,"83, Var, Provence-Alpes-CA'te d'Azur","83023",,,,ok,204.904318641215127,Non,Non Seveso,"1","908",946721.835550687275827,6258358.315820584073663
RECUP BRIGNOLES CASSE,DREAL PACA,UD 83,"PA'le CarriA""res - dA(c)chets","83170",ZI Les Consacs,BRIGNOLES,BRIGNOLES,"83023","6400081",43.402329999999999,6.051901000000000,Zone Industrielle les Consacs 83170 Brignoles,"0.4267292829705505",,street,83023_18dhgj,,Zone Industrielle les Consacs,Zone Industrielle les Consacs,"83170",Brignoles,"83, Var, Provence-Alpes-CA'te d'Azur","83023",,,,ok,284.871456232633591,Non,Non Seveso,"3","915",947286.954750261851586,6260691.590505169704556
RECUP ESCUDIER,DREAL PACA,UD 83,"PA'le CarriA""res - dA(c)chets","83170",Gare SNCF,BRIGNOLES,BRIGNOLES,"83023","6400103",43.396622000000001,6.058086000000000,Chemin de Gaudiere 83170 Brignoles,"0.4336707438016528","0.3759345454545454",street,83023_0325,,Chemin de Gaudiere,Chemin de Gaudiere,"83170",Brignoles,"83, Var, Provence-Alpes-CA'te d'Azur","83023",,,,ok,908.659739600019066,Non,Non Seveso,"1","917",947812.423797367955558,6260076.975463015027344
Cave CERCLE DES VIGNERONS DE PROVENCE,DREAL PACA,UD 83,"PA'le CarriA""res - dA(c)chets","83170",ESTANDON - ZI Les Consacs,BRIGNOLES,BRIGNOLES,"83023","6400082",43.402329999999999,6.051901000000000,Zone Industrielle les Consacs 83170 Brignoles,"0.3785747430830039",,street,83023_18dhgj,,Zone Industrielle les Consacs,Zone Industrielle les Consacs,"83170",Brignoles,"83, Var, Provence-Alpes-CA'te d'Azur","83023",,,,ok,186.381358345329261,Non,Non Seveso,"3","915",947286.954750261851586,6260691.590505169704556
ISDI La crAate du juge - BRIGNOLES,DREAL PACA,UD 83,"PA'le CarriA""res - dA(c)chets","83170",ISDI La crAate du juge - BRIGNOLES Lieu-dit La Colle,BRIGNOLES,BRIGNOLES,"83023","6412185",43.385958000000002,6.127807000000000,Colle Basse 83170 Brignoles,"0.2312856089193825",,street,83023_B052,,Colle Basse,Colle Basse,"83170",Brignoles,"83, Var, Provence-Alpes-CA'te d'Azur","83023",,,,ok,6278.425219734208440,Non,Non Seveso,"1","946",953506.294482255121693,6259113.829985483549535
VERMIGLI Ste (GRILLAGES),DREAL PACA,UD 83,PA'le Risques accidentels et chroniques,"83170",ZI les Consacs 339 Bld Long CS 60069,BRIGNOLES,BRIGNOLES,"83023","6400120",43.402329999999999,6.051901000000000,Zone Industrielle les Consacs 83170 Brignoles,"0.35881189723320156",,street,83023_18dhgj,,Zone Industrielle les Consacs,Zone Industrielle les Consacs,"83170",Brignoles,"83, Var, Provence-Alpes-CA'te d'Azur","83023",,,,ok,380.744790034218340,Non,Non Seveso,"3","915",947286.954750261851586,6260691.590505169704556
PASCAL Les Bedoux  PrA(c) du pont,DREAL PACA,UD 04-05,PA'le Territorial 05,"05500",BUISSARD et ST JULIEN Lieux-dit Les Bedoux et  PrA(c) du Pont,BUISSARD,BUISSARD,"05025","6407707",44.654539000000000,6.142369000000000,Chemin des Bedoux bas 05500 Buissard,"0.250784577352472","0.2317753982300885",street,05025_71xzto,,Chemin des Bedoux bas,Chemin des Bedoux bas,"05500",Buissard,"05, Hautes-Alpes, Provence-Alpes-CA'te d'Azur","05025",,,,ok,355.399102429545337,Non,Non Seveso,"1","954",949077.944745809538290,6400005.096815494820476
CARRIERE AUZENDE GUERIN ROUX,DREAL PACA,UD 84,"UnitA(c) carriA""res","84480",La Roche d'Espeil Combe de Lourmarin,BUOUX,BUOUX,"84023","6402054",43.823103000000003,5.365124000000000,Quartier de la Combe 84480 Buoux,"0.2907259770114943",,locality,84023_B018,,Quartier de la Combe,,"84480",Buoux,"84, Vaucluse, Provence-Alpes-CA'te d'Azur","84023",,,,ok,2545.089110509127295,Non,Non Seveso,"1","553",890257.900798488873988,6305526.255634979344904
LES CRUDETTES SAS,DREAL PACA,UD 84,UnitA(c) risques chroniques,"13440",ZAC de la plaine Route de Cavaillon,CABANNES,CABANNES,"13018","6400459",43.857861000000000,4.953469000000000,Route de Cavaillon 13440 Cabannes,"0.4463528767123287","0.4415112987012986",street,13018_0060,,Route de Cavaillon,Route de Cavaillon,"13440",Cabannes,"13, Bouches-du-RhA'ne, Provence-Alpes-CA'te d'Azur","13018",,,,ok,1172.713444734650921,Non,Non Seveso,"1","222",857055.022422614507377,6308481.905913516879082
COMPOSTAGE CABASSE-VALEOR,DREAL PACA,UD 83,"PA'le CarriA""res - dA(c)chets","83340","Lieu dit La GagA""re RD 79",CABASSE,CABASSE,"83026","6406316",43.426439000000002,6.221485000000000,Impasse de la Glaciere 83340 Cabasse,"0.37563368421052623","0.35299013808975827",street,83026_2wgitg,,Impasse de la Glaciere,Impasse de la Glaciere,"83340",Cabasse,"83, Var, Provence-Alpes-CA'te d'Azur","83026",,,,ok,3678.658537807624725,Non,Non Seveso,"1","984",960911.144838938489556,6263915.031665106303990
Casse-auto LAUGIER Denis CASSE AUTO,DREAL PACA,UD 84,UnitA(c) risques accidentels,"84220",La SA(c)nancole Quartier Voulonne,CABRIERES-D'AVIGNON,CABRIERES-D'AVIGNON,"84025","6404970",43.867235999999998,5.164493000000000,"Le Clos de Voulonne 84220 CabriA""res-d'Avignon","0.4050745454545454",,locality,84025_B014,,Le Clos de Voulonne,,"84220","CabriA""res-d'Avignon","84, Vaucluse, Provence-Alpes-CA'te d'Azur","84025",,,,ok,158.868839832583348,Non,Non Seveso,"1","403",873988.337078008567914,6309965.665078436955810
CDA,DDPP 13,SPAE 13,SPAE,"13480",Route de ViolA(c)si,CABRIES,CABRIES,"13019","6411485",43.439571999999998,5.387297000000000,"Route de Violesi 13480 CabriA""s","0.7296343123543123",,street,13019_9490,,Route de Violesi,Route de Violesi,"13480","CabriA""s","13, Bouches-du-RhA'ne, Provence-Alpes-CA'te d'Azur","13019",,,,ok,379.484753955350811,Non,Non Seveso,"1","592",893329.520376604516059,6262974.507021774537861
"EPC FRANCE CabriA""s (ex NitroBickford)",DREAL PACA,UD 13,PA'le Seveso,"13480",Quartier la GuA(c)rine - CD 60 A,CABRIES,CABRIES,"13019","6400611",43.426887999999998,5.377331000000000,"Quartier de la Meuniere 13480 CabriA""s","0.3393979060265577","0.31895198347107434",street,13019_A096,,Quartier de la Meuniere,Quartier de la Meuniere,"13480","CabriA""s","13, Bouches-du-RhA'ne, Provence-Alpes-CA'te d'Azur","13019",,,,ok,2642.300789596401955,Non,Seveso seuil haut,"1","580",892565.132867419160903,6261540.925528000108898
SCC SociA(c)tA(c) des Centres Commerciaux,DREAL PACA,UD 13,Equipe Aix en Provence,"13480",Centre commercial AVANT CAP Plan de Campagne CD6,CABRIES,CABRIES,"13019","6412301",43.419744000000001,5.359873000000000,"Centre Com Avant Cap 13480 CabriA""s","0.3339984615384616",,street,13019_A025,,Centre Com Avant Cap,Centre Com Avant Cap,"13480","CabriA""s","13, Bouches-du-RhA'ne, Provence-Alpes-CA'te d'Azur","13019",,,,ok,127.274486122858406,Non,Non Seveso,"1","541",891175.176296658930369,6260704.775382149033248
SPTF,DREAL PACA,UD 84,UnitA(c) risques chroniques,"84860",Z A Les Islons Chemin de la Gandonne aux Islons,CADEROUSSE,CADEROUSSE,"84027","6401154",44.106247000000003,4.759736000000000,Chemin de la Blanquette 84860 Caderousse,"0.3722861664841182","0.34079",street,84027_0427,,Chemin de la Blanquette,Chemin de la Blanquette,"84860",Caderousse,"84, Vaucluse, Provence-Alpes-CA'te d'Azur","84027",,,,ok,1361.930775070640721,Non,Non Seveso,"1","47",840866.981621897197329,6335707.855737539939582
TRABET Ex SPIEbatignolles malet,DREAL PACA,UD 84,UnitA(c) risques chroniques,"84860",Le Colombier,CADEROUSSE,CADEROUSSE,"84027","6414007",44.102592999999999,4.755547000000000,Rue de L'Escurier 84860 Caderousse,"0.3330254545454545","0.32456317559153175",street,84027_0240,,Rue de L'Escurier,Rue de L'Escurier,"84860",Caderousse,"84, Vaucluse, Provence-Alpes-CA'te d'Azur","84027",,,,ok,1178.140128382397734,Non,Non Seveso,"1","46",840540.732506228960119,6335294.511393631808460
AUTOCHOC (ex N3),DREAL PACA,UD 06,PA'le DACEN,"06800",ZI de la Campanette Les Bernardines,CAGNES-SUR-MER,CAGNES-SUR-MER,"06027","6402287",43.677081999999999,7.164306000000000,Chemin de la Campanette 06800 Cagnes-sur-Mer,"0.5056027272727271",,street,06027_0445,,Chemin de la Campanette,Chemin de la Campanette,"06800",Cagnes-sur-Mer,"06, Alpes-Maritimes, Provence-Alpes-CA'te d'Azur","06027",,,,ok,454.564409318557011,Non,Non Seveso,"1","1268",1035739.873821126529947,6295304.639713613316417
DA(c)chetterie  Les CAUCOURS,DREAL PACA,UD 06,PA'le DACEN,"06800",Les Caucours,CAGNES-SUR-MER,CAGNES-SUR-MER,"06027","6411235",43.677106000000002,7.142595000000000,Chemin des Caucours 06800 Cagnes-sur-Mer,"0.5177527272727273",,street,06027_0570,,Chemin des Caucours,Chemin des Caucours,"06800",Cagnes-sur-Mer,"06, Alpes-Maritimes, Provence-Alpes-CA'te d'Azur","06027",,,,ok,443.372593279304169,Non,Non Seveso,"1","1264",1033990.933049415005371,6295215.230865482240915
SERAHU (HUILES USEES),DREAL PACA,UD 06,PA'le DACEN,"06800",68 CHE DE LA CAMPANETTE,CAGNES-SUR-MER,CAGNES-SUR-MER,"06027","6400363",43.678370999999999,7.164617000000000,68 Chemin de la Campanette 06800 Cagnes-sur-Mer,"0.5854595143212951",,housenumber,06027_0445_00068,"68",68 Chemin de la Campanette,Chemin de la Campanette,"06800",Cagnes-sur-Mer,"06, Alpes-Maritimes, Provence-Alpes-CA'te d'Azur","06027",,,,ok,43.762061064039990,Oui,Non Seveso,"1","1269",1035757.372528285952285,6295449.015179612673819
STEP CAGNES/MER - SYMISCA,DREAL PACA,UD 06,PA'le ERASO,"06800",8 Avenue de la Gare,CAGNES-SUR-MER,CAGNES-SUR-MER,"06027","6413206",43.658006999999998,7.147870000000000,Avenue de la Gare 06800 Cagnes-sur-Mer,"0.5498180764163373","0.5447684250960306",street,06027_1370,,Avenue de la Gare,Avenue de la Gare,"06800",Cagnes-sur-Mer,"06, Alpes-Maritimes, Provence-Alpes-CA'te d'Azur","06027",,,,ok,2.573769043533311,Oui,Non Seveso,"1","1265",1034527.278164707822725,6293117.913945379666984
